~VERSION INFORMATION
VERS.                                                 2.0:   CWLS Log ASCII Standard-VERSION 2.0
WRAP.                                                  NO:   One line per depth step
~Well Information Block
STRT.M                                           359.8652:   Top Depth
STOP.M                                          1124.7608:   Bottom Depth
STEP.M                                             .15240:   Depth Increment
NULL.                                            -999.250:   Null Value
FLD .                                             WILDCAT:   Field Name
WELL.                                              16/2-1:   NAME
WBN .                                              16/2-1:   WELLBORE
NATI.                                                 NOR:   COUNTRY
BHT1.DEGF                                           100.0:   BH TEMP 1
BHT2.DEGF                                           165.0:   BH TEMP 2
BS1 .IN                                            12.250:   BIT SIZE 1
CTRY.                                                 NOR:   COUNTRY
CBD1.F                                             1192.0:   CSG 1 DRILL DEP
CBL1.F                                             1197.0:   CSG 1 LOG DEP
CS1 .IN                                           13.3750:   CSG 1 SIZE
COMP.                        ESSO EXPLORATION NORWAY INC.:   OPERATOR
PDAT.                                                 MSL:   PERM DATUM
PROV.                                  OFFSHORE NORTH SEA:   PROVINCE
COUN.                                      OCEAN TRAVELER:   RIG NAME
SPUD.                                          1967/07/11:   SPUD DATE
LATI.                                       58 53 35.40 N:   SURF. LATITUDE
LONG.                                        2 21 32.30 E:   SURF. LONGITUDE
BTD1.                                            3660.0 F:   TOTAL DEPTH 1
BTD2.                                            6267.0 F:   TOTAL DEPTH 2
PBWE.                                              16/2-1:   PB WELL ID
APIN.                                              16/2-1:   PB WELLBORE ID
PBWS.                                                 all:   PB WELL NAME SET
~PARAMETER INFORMATION (log)
LNAM.                                               IES-2:   NAME
LTYP.                                                 RAW:   LOG TYPE
LSRV.                                           INDUCTION:   LOG SERVICE
LSOU.                                             NPD/SPT:   LOG SOURCE
LVSN.                                                   1:   LOG VERSION
LRUN.                                                   2:   LOG RUN
BLI .F                                             3659.0:   BOTTOM DEPTH LOGGED
BHIS.                                                   R:   BRIEF HISTORY
R1  .                                OLD WELL NAME 16/2-1:   COMMENT  1
R2  .                                   LOGGED AS IEL-1-2:   COMMENT  2
R3  .                                 RUCKER DEVICE USED.:   COMMENT  3
DMF .                                                  RT:   DRILL MEAS FROM
EDF .F                                               85.0:   ELEV DRILL FLOOR
ENGI.                                              C.ROSS:   ENGINEER
TDD .F                                             3850.0:   FINAL TD DRILLER
TDL .F                                             3660.0:   FINAL TD LOGGER
DFL .                                                 4.0:   FLUID LOSS
FHIS.                                             RAW-LIS:   FULL HISTORY
EKB .F                                               85.0:   KB ELEVATION
LCNM.                                                SCHL:   LOGGING CONTRACTOR
LMF .                                                  RT:   LOGS MEAS FROM
DFD .                                        9.6000003815:   MUD DENSITY
DFPH.                                                10.0:   MUD PH
DFT .                                 W-SPERSENE XP-20 SW:   MUD TYPE
DFV .                                                45.0:   MUD VISCOSITY
RMS .OHMM                                    .31000000238:   RM
MSS .                                            FLOWLINE:   RM SOURCE
MST .DEGF                                            70.0:   RM TEMP
RMCS.OHMM                                    .77999997139:   RMC
MCST.DEGF                                            64.0:   RMC TEMP
RMFS.OHMM                                    .20999997854:   RMF
MMFS.                                              BAROID:   RMF SOURCE
MFST.DEGF                                            64.0:   RMF TEMP
TLAB.                                      1967/07/210900:   TIME LOGGER ON BOT
TCS .                                              9.0 HR:   TIME SINCE CIRCLN
TOOL.                                               IES-2:   TOOL STRING
TLI .F                                             1197.0:   TOP DEPTH LOGGED
WITN.                                             J.VOGEL:   WITNESS
~Curve Information Block
#MNEM.UNIT                                        API CODE    No Description
#=========                                        ========    == ===========
DEPT.M                                       00 001 00 00:     1  DEPTH
CILD.                                                    :     2  Deep induction conductivity
ILD.OHMM                                                 :     3  Deep induction resistivity
SN.OHMM                                                  :     4  Medium Resistivity
SP.MV                                                    :     5  Spontaneous potential
~ASCII
# ...
 1094.1284  1739.0869      .5751      .6706    69.6809
 1094.2808  1726.8984      .5791      .6848    69.6885
 1094.4332  1719.8806      .5815      .6980    69.6962
 1094.5856  1717.2402      .5822      .6997    69.7038
 1094.7380  1722.5112      .5805      .6941    69.7115
 1094.8904  1721.0330      .5812      .6916    69.7191
 1095.0428  1712.0139      .5844      .6976    69.7267
 1095.1952  1699.8127      .5885      .7000    69.7344
 1095.3476  1689.1416      .5918      .7043    69.7420
 1095.5000  1684.7822      .5935      .7089    69.7496
 1095.6524  1687.7227      .5926      .7085    69.7573
 1095.8048  1700.2324      .5884      .7075    69.7649
 1095.9572  1716.6467      .5828      .7053    69.7392
 1096.1096  1734.0955      .5769      .6990    69.6425
 1096.2620  1748.6162      .5720      .6961    69.5458
 1096.4144  1753.3643      .5704      .6932    69.4490
 1096.5668  1756.4082      .5694      .6924    69.4507
 1096.7192  1758.1904      .5688      .6932    69.5441
 1096.8716  1759.1890      .5684      .6935    69.6374
 1097.0240  1759.1194      .5685      .6929    69.7309
 1097.1764  1757.7195      .5690      .6929    69.8243
 1097.3288  1744.3525      .5734      .6931    69.8398
 1097.4812  1728.0583      .5789      .6932    69.8457
 1097.6336  1712.1597      .5843      .6953    69.8516
 1097.7860  1697.1130      .5895      .6974    69.8576
 1097.9384  1682.4319      .5947      .7004    69.8635
 1098.0908  1669.1985      .5993      .6993    69.8694
 1098.2432  1657.3247      .6031      .6948    69.8311
 1098.3956  1651.3049      .6055      .6917    69.7904
 1098.5480  1656.4106      .6039      .6847    69.7498
 1098.7004  1672.0999      .5984      .6779    69.7092
 1098.8528  1694.7751      .5903      .6695    69.7267
 1099.0052  1717.2896      .5825      .6592    69.7738
 1099.1576  1726.5869      .5792      .6487    69.8210
 1099.3100  1735.8708      .5761      .6421    69.8681
 1099.4624  1746.2605      .5726      .6370    69.9152
 1099.6148  1765.6650      .5662      .6311    69.8597
 1099.7672  1791.0361      .5581      .6261    69.7901
 1099.9196  1818.0706      .5499      .6214    69.7206
 1100.0720  1824.4165      .5481      .6173    69.6511
 1100.2244  1821.9116      .5491      .6161    69.5816
 1100.3768  1807.2229      .5537      .6163    69.5016
 1100.5292  1797.1423      .5563      .6164    69.4147
 1100.6816  1800.7690      .5554      .6214    69.4947
 1100.8340  1797.1987      .5564      .6280    69.7738
 1100.9864  1784.8696      .5601      .6341    70.0532
 1101.1388  1772.6543      .5640      .6430    70.3323
 1101.2912  1760.4495      .5679      .6518    70.2086
 1101.4436  1748.2446      .5719      .6605    70.0022
 1101.5960  1743.2144      .5736      .6703    69.8019
 1101.7484  1746.4563      .5726      .6801    69.8599
 1101.9008  1745.3613      .5730      .6915    69.9178
 1102.0532  1739.1753      .5750      .7035    69.9758
 1102.2056  1742.0911      .5739      .7126    70.0216
 1102.3580  1753.8123      .5700      .7200    70.0273
 1102.5104  1767.6052      .5655      .7266    70.0329
 1102.6628  1783.3997      .5604      .7290    70.0580
 1102.8152  1784.5098      .5607      .7314    70.2642
 1102.9676  1746.2073      .5738      .7347    70.4275
 1103.1200  1686.6672      .5914      .7420    70.2728
 1103.2724  1592.4114      .6257      .7548    70.1182
 1103.4248  1494.3245      .6671      .7777    70.0667
 1103.5772  1388.5862      .7181      .8008    70.0724
 1103.7296  1276.0925      .7821      .8195    70.1019
 1103.8820  1159.0173      .8621      .8463    70.2492
 1104.0344  1041.7976      .9605      .8919    70.3964
 1104.1868   995.0792     1.0092      .9393    70.6452
 1104.3392   880.5917     1.1372      .9826    71.0699
 1104.4916   850.0530     1.1756     1.0265    71.4947
 1104.6440   868.3687     1.1490     1.0634    71.9191
 1104.7964   908.4115     1.0963     1.0882    72.3004
 1104.9488   966.2981     1.0305     1.1152    72.6503
 1105.1012  1062.1907      .9345     1.1408    72.9065
 1105.2536  1166.6899      .8621     1.1252    72.9122
 1105.4060  1277.0200      .7885     1.0586    72.5368
 1105.5584  1343.8418      .7464      .9909    72.0140
 1105.7108  1324.2209      .7542      .9635    71.3447
 1105.8632  1274.8481      .7830      .9612    70.6749
 1106.0156  1227.5596      .8138      .9722    70.4498
 1106.1680  1188.6379      .8407      .9859    70.3954
 1106.3204  1135.9963      .8800      .9689    70.4870
 1106.4728  1083.5378      .9231      .9414    70.5909
 1106.6252  1031.4675      .9703      .9437    71.1319
 1106.7776   982.0233     1.0196      .9710    71.4631
 1106.9300   982.6541     1.0154      .9715    71.5400
 1107.0824  1039.2385      .9590      .9530    71.3452
 1107.2348  1115.3040      .8927      .9379    71.1261
 1107.3872  1217.8218      .8167      .8993    70.8315
 1107.5396  1321.9983      .7527      .8432    70.5914
 1107.6920  1418.8240      .7003      .8140    70.5045
 1107.8444  1518.1272      .6608      .7942    70.3833
 1107.9968  1560.1860      .6423      .7714    70.0098
 1108.1492  1585.5088      .6310      .7521    69.6362
 1108.3016  1589.9766      .6290      .7321    69.2623
 1108.4540  1592.9285      .6278      .7160    69.3996
 1108.6064  1604.6584      .6233      .7018    69.5468
 1108.7588  1634.7563      .6120      .6899    69.6595
 1108.9112  1670.5737      .5988      .6771    69.6128
 1109.0636  1709.1160      .5851      .6674    69.5661
 1109.2160  1729.4209      .5782      .6588    69.5195
 1109.3684  1742.8042      .5737      .6536    69.4160
 1109.5208  1748.0115      .5721      .6491    69.2212
 1109.6732  1749.2861      .5716      .6508    69.0266
 1109.8256  1759.4026      .5681      .6493    68.9146
 1109.9780  1773.7283      .5635      .6512    68.9202
 1110.1304  1786.9409      .5593      .6490    68.9572
 1110.2828  1800.1643      .5552      .6444    69.2637
 1110.4352  1813.3877      .5518      .6405    69.5260
 1110.5876  1815.0029      .5510      .6401    69.4816
 1110.7400  1832.1558      .5462      .6442    69.4371
 1110.8924  1849.4160      .5409      .6477    69.3926
 1111.0448  1861.3796      .5374      .6448    69.3565
 1111.1972  1873.3335      .5339      .6403    69.3622
 1111.3496  1878.3528      .5324      .6408    69.3678
 1111.5020  1872.2129      .5341      .6442    69.3734
 1111.6544  1866.2803      .5358      .6418    69.3636
 1111.8068  1866.8574      .5356      .6373    69.3277
 1111.9592  1872.1460      .5341      .6352    69.2919
 1112.1116  1877.4343      .5326      .6370    69.2561
 1112.2640  1881.6350      .5315      .6328    69.2202
 1112.4164  1878.3254      .5325      .6303    69.2088
 1112.5688  1871.8513      .5341      .6339    69.2145
 1112.7212  1879.0330      .5320      .6372    69.2201
 1112.8736  1891.1011      .5291      .6397    69.2068
 1113.0260  1897.6399      .5270      .6419    69.0624
 1113.1784  1897.8030      .5270      .6444    69.1770
 1113.3308  1897.9661      .5269      .6365    69.2426
 1113.4832  1898.1289      .5269      .6345    69.2483
 1113.6356  1898.2925      .5268      .6382    69.2972
 1113.7880  1898.4556      .5268      .6498    69.4296
 1113.9404  1898.6187      .5267      .6472    69.5618
 1114.0928  1898.7820      .5266      .6424    69.6508
 1114.2452  1898.9451      .5266      .6394    69.5764
 1114.3976  1899.1086      .5265      .6371    69.5018
 1114.5500  1899.2715      .5265      .6412    69.4273
 1114.7024  1899.4346      .5264      .6434    69.3528
 1114.8548  1899.5979      .5264      .6435    69.3115
 1115.0072  1899.7612      .5263      .6477    69.3653
 1115.1596  1899.9243      .5263      .6541    69.4190
 1115.3120  1900.0874      .5263      .6545    69.4728
 1115.4644  1900.2502      .5263      .6554    69.5086
 1115.6168  1900.3630      .5262      .6560    69.4313
 1115.7692  1900.2964      .5263      .6562    69.3540
 1115.9216  1900.2295      .5263      .6595    69.2767
 1116.0740  1900.1631      .5263      .6595    69.1994
 1116.2264  1900.0962      .5263      .6587    69.1278
