~VERSION INFORMATION
VERS.                                                 2.0:   CWLS Log ASCII Standard-VERSION 2.0
WRAP.                                                  NO:   One line per depth step
~Well Information Block
STRT.M                                           359.8652:   Top Depth
STOP.M                                          1124.7608:   Bottom Depth
STEP.M                                             .15240:   Depth Increment
NULL.                                            -999.250:   Null Value
FLD .                                             WILDCAT:   Field Name
WELL.                                              16/2-1:   NAME
WBN .                                              16/2-1:   WELLBORE
NATI.                                                 NOR:   COUNTRY
BHT1.DEGF                                           100.0:   BH TEMP 1
BHT2.DEGF                                           165.0:   BH TEMP 2
BS1 .IN                                            12.250:   BIT SIZE 1
CTRY.                                                 NOR:   COUNTRY
CBD1.F                                             1192.0:   CSG 1 DRILL DEP
CBL1.F                                             1197.0:   CSG 1 LOG DEP
CS1 .IN                                           13.3750:   CSG 1 SIZE
COMP.                        ESSO EXPLORATION NORWAY INC.:   OPERATOR
PDAT.                                                 MSL:   PERM DATUM
PROV.                                  OFFSHORE NORTH SEA:   PROVINCE
COUN.                                      OCEAN TRAVELER:   RIG NAME
SPUD.                                          1967/07/11:   SPUD DATE
LATI.                                       58 53 35.40 N:   SURF. LATITUDE
LONG.                                        2 21 32.30 E:   SURF. LONGITUDE
BTD1.                                            3660.0 F:   TOTAL DEPTH 1
BTD2.                                            6267.0 F:   TOTAL DEPTH 2
PBWE.                                              16/2-1:   PB WELL ID
APIN.                                              16/2-1:   PB WELLBORE ID
PBWS.                                                 all:   PB WELL NAME SET
~PARAMETER INFORMATION (log)
LNAM.                                               IES-2:   NAME
LTYP.                                                 RAW:   LOG TYPE
LSRV.                                           INDUCTION:   LOG SERVICE
LSOU.                                             NPD/SPT:   LOG SOURCE
LVSN.                                                   1:   LOG VERSION
LRUN.                                                   2:   LOG RUN
BLI .F                                             3659.0:   BOTTOM DEPTH LOGGED
BHIS.                                                   R:   BRIEF HISTORY
R1  .                                OLD WELL NAME 16/2-1:   COMMENT  1
R2  .                                   LOGGED AS IEL-1-2:   COMMENT  2
R3  .                                 RUCKER DEVICE USED.:   COMMENT  3
DMF .                                                  RT:   DRILL MEAS FROM
EDF .F                                               85.0:   ELEV DRILL FLOOR
ENGI.                                              C.ROSS:   ENGINEER
TDD .F                                             3850.0:   FINAL TD DRILLER
TDL .F                                             3660.0:   FINAL TD LOGGER
DFL .                                                 4.0:   FLUID LOSS
FHIS.                                             RAW-LIS:   FULL HISTORY
EKB .F                                               85.0:   KB ELEVATION
LCNM.                                                SCHL:   LOGGING CONTRACTOR
LMF .                                                  RT:   LOGS MEAS FROM
DFD .                                        9.6000003815:   MUD DENSITY
DFPH.                                                10.0:   MUD PH
DFT .                                 W-SPERSENE XP-20 SW:   MUD TYPE
DFV .                                                45.0:   MUD VISCOSITY
RMS .OHMM                                    .31000000238:   RM
MSS .                                            FLOWLINE:   RM SOURCE
MST .DEGF                                            70.0:   RM TEMP
RMCS.OHMM                                    .77999997139:   RMC
MCST.DEGF                                            64.0:   RMC TEMP
RMFS.OHMM                                    .20999997854:   RMF
MMFS.                                              BAROID:   RMF SOURCE
MFST.DEGF                                            64.0:   RMF TEMP
TLAB.                                      1967/07/210900:   TIME LOGGER ON BOT
TCS .                                              9.0 HR:   TIME SINCE CIRCLN
TOOL.                                               IES-2:   TOOL STRING
TLI .F                                             1197.0:   TOP DEPTH LOGGED
WITN.                                             J.VOGEL:   WITNESS
~Curve Information Block
#MNEM.UNIT                                        API CODE    No Description
#=========                                        ========    == ===========
DEPT.M                                       00 001 00 00:     1  DEPTH
CILD.                                                    :     2  Deep induction conductivity
ILD.OHMM                                                 :     3  Deep induction resistivity
SN.OHMM                                                  :     4  Medium Resistivity
SP.MV                                                    :     5  Spontaneous potential
~ASCII
# ...
 1049.6276   827.4304     1.2085     1.5431    72.1431
 1049.7800   827.9547     1.2077     1.5427    72.1513
 1049.9324   828.6282     1.2067     1.5425    72.1595
 1050.0848   829.3022     1.2059     1.5403    72.1677
 1050.2372   827.3577     1.2089     1.5392    72.1204
 1050.3896   824.5947     1.2129     1.5393    72.0655
 1050.5420   821.8318     1.2170     1.5405    72.0105
 1050.6944   818.6398     1.2212     1.5424    72.0975
 1050.8468   815.3362     1.2262     1.5410    72.2344
 1050.9992   810.6428     1.2331     1.5376    72.3712
 1051.1516   803.0199     1.2448     1.5304    72.5080
 1051.3040   801.0034     1.2483     1.5231    72.6163
 1051.4564   804.6885     1.2430     1.5150    72.5104
 1051.6088   810.0070     1.2348     1.5059    72.4043
 1051.7612   816.3325     1.2276     1.4916    72.2983
 1051.9136   822.6582     1.2220     1.4682    72.1846
 1052.0660   819.8945     1.2165     1.4292    72.0665
 1052.2184   808.1882     1.2111     1.3744    71.9484
 1052.3708   806.3745     1.2119     1.3273    71.8943
 1052.5232   809.5872     1.1772     1.2749    71.9026
 1052.6756   844.3151     1.1148     1.1996    71.9108
 1052.8280   899.5580     1.0421     1.1226    71.9188
 1052.9804   978.7661      .9771     1.0401    71.5320
 1053.1328  1106.4553      .9247      .9433    70.9817
 1053.2852  1181.3335      .8724      .8590    70.5000
 1053.4376  1243.5620      .8200      .8346    70.2557
 1053.5900  1306.0571      .7676      .8174    70.0115
 1053.7424  1408.4177      .7068      .7910    69.7881
 1053.8948  1518.8293      .6624      .7536    69.7964
 1054.0472  1634.1602      .6153      .7243    69.8046
 1054.1996  1696.7092      .5899      .7066    69.8128
 1054.3520  1719.4360      .5821      .6940    69.8116
 1054.5044  1708.3235      .5851      .6845    69.7866
 1054.6568  1686.8872      .5926      .6753    69.7615
 1054.8092  1672.2100      .5979      .6706    69.7363
 1054.9616  1667.5854      .5997      .6673    69.7113
 1055.1140  1672.8098      .5978      .6628    69.6862
 1055.2664  1677.5618      .5961      .6582    69.6322
 1055.4188  1678.6902      .5957      .6536    69.5205
 1055.5712  1677.7224      .5961      .6489    69.6270
 1055.7236  1673.9971      .5974      .6443    69.6969
 1055.8760  1667.3171      .5998      .6420    69.6983
 1056.0284  1661.2764      .6020      .6406    69.5354
 1056.1808  1657.6721      .6032      .6386    69.3421
 1056.3332  1658.6340      .6028      .6386    69.6267
 1056.4856  1659.2012      .6025      .6387    69.7230
 1056.6380  1662.8462      .6013      .6386    69.5196
 1056.7904  1664.4873      .6009      .6356    69.1860
 1056.9428  1664.5576      .6008      .6318    69.5388
 1057.0952  1665.7798      .6004      .6298    69.9474
 1057.2476  1668.1919      .5995      .6279    70.1284
 1057.4000  1672.9995      .5978      .6278    70.0324
 1057.5524  1677.9341      .5960      .6279    69.9363
 1057.7048  1686.6531      .5930      .6270    69.8403
 1057.8572  1688.7251      .5922      .6247    69.8121
 1058.0096  1688.5967      .5922      .6243    69.8203
 1058.1620  1689.6143      .5918      .6216    69.8285
 1058.3144  1693.0012      .5906      .6203    69.8035
 1058.4668  1696.9314      .5893      .6177    69.7158
 1058.6192  1698.7915      .5886      .6172    69.6281
 1058.7716  1700.2183      .5881      .6173    69.5404
 1058.9240  1701.8083      .5875      .6175    69.4833
 1059.0764  1704.1365      .5867      .6177    69.5377
 1059.2288  1708.9944      .5849      .6178    69.5920
 1059.3812  1716.1265      .5825      .6169    69.6464
 1059.5336  1723.1426      .5806      .6135    69.7008
 1059.6860  1727.4360      .5790      .6075    69.8706
 1059.8384  1729.4448      .5783      .6040    69.7879
 1059.9908  1723.2087      .5802      .6037    69.7291
 1060.1432  1716.6108      .5825      .6030    69.9724
 1060.2956  1711.1621      .5844      .6031    70.1417
 1060.4480  1717.0911      .5824      .6039    70.1499
 1060.6004  1723.0249      .5804      .6067    70.1582
 1060.7528  1731.5906      .5775      .6083    70.1283
 1060.9052  1735.8879      .5761      .6096    70.0978
 1061.0576  1730.2434      .5780      .6110    70.0674
 1061.2100  1723.6509      .5802      .6127    70.0369
 1061.3624  1717.4236      .5823      .6147    70.0065
 1061.5148  1714.3459      .5832      .6154    69.7795
 1061.6672  1718.5398      .5817      .6164    69.7716
 1061.8196  1726.4626      .5792      .6166    69.9598
 1061.9720  1723.4768      .5805      .6162    69.8099
 1062.1244  1711.2532      .5846      .6159    69.7040
 1062.2768  1693.8931      .5898      .6209    69.5981
 1062.4292  1673.0850      .5973      .6270    69.4922
 1062.5816  1674.2939      .5975      .6265    69.5091
 1062.7340  1683.5466      .5942      .6227    69.5653
 1062.8864  1688.2266      .5924      .6226    69.6215
 1063.0388  1687.9927      .5924      .6270    69.6777
 1063.1912  1679.8887      .5952      .6316    69.7480
 1063.3436  1673.1631      .5977      .6325    69.8268
 1063.4960  1675.4648      .5969      .6307    69.9057
 1063.6484  1679.3440      .5955      .6303    69.9812
 1063.8008  1680.4692      .5951      .6290    70.0560
 1063.9532  1677.4468      .5962      .6267    70.1309
 1064.1056  1667.8154      .5998      .6275    70.0955
 1064.2580  1650.1616      .6062      .6303    70.0407
 1064.4104  1636.3003      .6112      .6316    69.9858
 1064.5628  1630.1536      .6135      .6340    69.9757
 1064.7152  1627.1753      .6144      .6354    69.9840
 1064.8676  1633.1782      .6120      .6356    69.9922
 1065.0200  1642.9121      .6089      .6357    69.9463
 1065.1724  1652.5300      .6054      .6347    69.8215
 1065.3248  1661.7891      .6020      .6322    69.6965
 1065.4772  1666.5298      .6002      .6322    69.7152
 1065.6296  1669.7314      .5990      .6317    69.9234
 1065.7820  1677.5884      .5962      .6288    69.9260
 1065.9344  1685.8269      .5933      .6274    69.6776
 1066.0868  1691.7798      .5911      .6248    69.4925
 1066.2392  1697.2290      .5892      .6227    69.7124
 1066.3916  1703.1580      .5871      .6214    69.9324
 1066.5440  1714.4993      .5832      .6222    70.0825
 1066.6964  1728.8862      .5782      .6254    70.0904
 1066.8488  1754.9778      .5696      .6272    70.0984
 1067.0012  1759.2737      .5685      .6236    70.1063
 1067.1536  1749.1553      .5720      .6171    70.1142
 1067.3060  1723.9702      .5805      .6262    70.0872
 1067.4584  1696.3484      .5900      .6408    70.0549
 1067.6108  1685.9631      .5927      .6437    70.0226
 1067.7632  1701.0847      .5876      .6390    69.9902
 1067.9156  1707.7231      .5857      .6344    69.9579
 1068.0680  1697.5449      .5888      .6327    69.9145
 1068.2204  1674.6394      .5967      .6367    69.8701
 1068.3728  1663.1643      .6012      .6381    69.8256
 1068.5252  1666.1223      .6003      .6366    69.7806
 1068.6776  1678.6848      .5959      .6320    69.7311
 1068.8300  1702.4194      .5877      .6230    69.6817
 1068.9824  1733.3552      .5772      .6201    69.6323
 1069.1348  1756.0461      .5695      .6225    69.6540
 1069.2872  1770.4758      .5649      .6239    69.7161
 1069.4396  1789.8542      .5587      .6167    69.7783
 1069.5920  1790.5837      .5585      .6155    69.8404
 1069.7444  1783.9917      .5606      .6165    69.9146
 1069.8968  1770.2595      .5650      .6171    69.9889
 1070.0492  1754.4185      .5702      .6224    70.0594
 1070.2016  1738.4724      .5755      .6261    70.0126
 1070.3540  1719.2351      .5820      .6344    69.9658
 1070.5064  1699.3535      .5886      .6437    69.9189
 1070.6588  1690.9197      .5914      .6534    69.8935
 1070.8112  1687.8303      .5924      .6596    69.9012
 1070.9636  1689.5957      .5920      .6593    69.9088
 1071.1160  1694.6799      .5903      .6631    69.9164
 1071.2684  1706.9761      .5862      .6653    69.9240
 1071.4208  1718.0476      .5823      .6655    69.9317
 1071.5732  1725.6934      .5796      .6656    69.9393
 1071.7256  1733.1248      .5771      .6641    69.9469
