~VERSION INFORMATION
VERS.                                                 2.0:   CWLS Log ASCII Standard-VERSION 2.0
WRAP.                                                  NO:   One line per depth step
~Well Information Block
STRT.M                                           359.8652:   Top Depth
STOP.M                                          1124.7608:   Bottom Depth
STEP.M                                             .15240:   Depth Increment
NULL.                                            -999.250:   Null Value
FLD .                                             WILDCAT:   Field Name
WELL.                                              16/2-1:   NAME
WBN .                                              16/2-1:   WELLBORE
NATI.                                                 NOR:   COUNTRY
BHT1.DEGF                                           100.0:   BH TEMP 1
BHT2.DEGF                                           165.0:   BH TEMP 2
BS1 .IN                                            12.250:   BIT SIZE 1
CTRY.                                                 NOR:   COUNTRY
CBD1.F                                             1192.0:   CSG 1 DRILL DEP
CBL1.F                                             1197.0:   CSG 1 LOG DEP
CS1 .IN                                           13.3750:   CSG 1 SIZE
COMP.                        ESSO EXPLORATION NORWAY INC.:   OPERATOR
PDAT.                                                 MSL:   PERM DATUM
PROV.                                  OFFSHORE NORTH SEA:   PROVINCE
COUN.                                      OCEAN TRAVELER:   RIG NAME
SPUD.                                          1967/07/11:   SPUD DATE
LATI.                                       58 53 35.40 N:   SURF. LATITUDE
LONG.                                        2 21 32.30 E:   SURF. LONGITUDE
BTD1.                                            3660.0 F:   TOTAL DEPTH 1
BTD2.                                            6267.0 F:   TOTAL DEPTH 2
PBWE.                                              16/2-1:   PB WELL ID
APIN.                                              16/2-1:   PB WELLBORE ID
PBWS.                                                 all:   PB WELL NAME SET
~PARAMETER INFORMATION (log)
LNAM.                                               IES-2:   NAME
LTYP.                                                 RAW:   LOG TYPE
LSRV.                                           INDUCTION:   LOG SERVICE
LSOU.                                             NPD/SPT:   LOG SOURCE
LVSN.                                                   1:   LOG VERSION
LRUN.                                                   2:   LOG RUN
BLI .F                                             3659.0:   BOTTOM DEPTH LOGGED
BHIS.                                                   R:   BRIEF HISTORY
R1  .                                OLD WELL NAME 16/2-1:   COMMENT  1
R2  .                                   LOGGED AS IEL-1-2:   COMMENT  2
R3  .                                 RUCKER DEVICE USED.:   COMMENT  3
DMF .                                                  RT:   DRILL MEAS FROM
EDF .F                                               85.0:   ELEV DRILL FLOOR
ENGI.                                              C.ROSS:   ENGINEER
TDD .F                                             3850.0:   FINAL TD DRILLER
TDL .F                                             3660.0:   FINAL TD LOGGER
DFL .                                                 4.0:   FLUID LOSS
FHIS.                                             RAW-LIS:   FULL HISTORY
EKB .F                                               85.0:   KB ELEVATION
LCNM.                                                SCHL:   LOGGING CONTRACTOR
LMF .                                                  RT:   LOGS MEAS FROM
DFD .                                        9.6000003815:   MUD DENSITY
DFPH.                                                10.0:   MUD PH
DFT .                                 W-SPERSENE XP-20 SW:   MUD TYPE
DFV .                                                45.0:   MUD VISCOSITY
RMS .OHMM                                    .31000000238:   RM
MSS .                                            FLOWLINE:   RM SOURCE
MST .DEGF                                            70.0:   RM TEMP
RMCS.OHMM                                    .77999997139:   RMC
MCST.DEGF                                            64.0:   RMC TEMP
RMFS.OHMM                                    .20999997854:   RMF
MMFS.                                              BAROID:   RMF SOURCE
MFST.DEGF                                            64.0:   RMF TEMP
TLAB.                                      1967/07/210900:   TIME LOGGER ON BOT
TCS .                                              9.0 HR:   TIME SINCE CIRCLN
TOOL.                                               IES-2:   TOOL STRING
TLI .F                                             1197.0:   TOP DEPTH LOGGED
WITN.                                             J.VOGEL:   WITNESS
~Curve Information Block
#MNEM.UNIT                                        API CODE    No Description
#=========                                        ========    == ===========
DEPT.M                                       00 001 00 00:     1  DEPTH
CILD.                                                    :     2  Deep induction conductivity
ILD.OHMM                                                 :     3  Deep induction resistivity
SN.OHMM                                                  :     4  Medium Resistivity
SP.MV                                                    :     5  Spontaneous potential
~ASCII
# ...
  515.6180  1498.9419      .6696     1.0795    69.7683
  515.7704  1355.4795      .7404     1.0758    69.8655
  515.9228  1304.5989      .7656     1.0626    69.9627
  516.0752  1347.6929      .7399     1.0493    70.0599
  516.2276  1415.1575      .7041     1.0377    70.1571
  516.3800  1482.4661      .6733     1.0337    70.2543
  516.5324  1506.1257      .6643     1.0354    70.3487
  516.6848  1515.9207      .6600     1.0396    70.4410
  516.8372  1521.3284      .6575     1.0365    70.5332
  516.9896  1516.5425      .6591     1.0323    70.6254
  517.1420  1497.7573      .6673     1.0309    70.5990
  517.2944  1469.1611      .6801     1.0345    70.2463
  517.4468  1438.9282      .6945     1.0406    69.8936
  517.5992  1381.7007      .7231     1.0521    69.7292
  517.7516  1318.6350      .7579     1.0757    69.7863
  517.9040  1230.7466      .8123     1.1058    69.8434
  518.0564  1147.7854      .8716     1.1328    69.9005
  518.2088  1070.7085      .9351     1.1621    69.8430
  518.3612   994.1254     1.0062     1.2059    69.7846
  518.5136   958.0740     1.0458     1.2528    69.7261
  518.6660   899.7749     1.1126     1.2872    69.7403
  518.8184   873.2889     1.1467     1.3009    69.7883
  518.9708   846.8030     1.1827     1.3039    69.8362
  519.1232   828.8721     1.2067     1.3030    69.8842
  519.2756   829.4285     1.2051     1.2996    69.9148
  519.4280   844.1398     1.1819     1.2904    69.9168
  519.5804   880.6455     1.1307     1.2789    69.9188
  519.7328   946.4315     1.0506     1.2718    69.9208
  519.8852  1059.9155      .9538     1.2653    69.9228
  520.0376  1219.1165      .8282     1.2543    69.9847
  520.1900  1334.0928      .7542     1.2113    70.0907
  520.3424  1448.8203      .6938     1.1353    70.1966
  520.4948  1563.6614      .6423     1.0462    70.3026
  520.6472  1678.8611      .5978      .9737    70.2368
  520.7996  1791.8782      .5597      .9559    70.1192
  520.9520  1836.4468      .5449      .9642    70.0016
  521.1044  1796.8201      .5561      .9889    69.9099
  521.2568  1663.9373      .5998     1.0281    69.8489
  521.4092  1470.7073      .6784     1.0717    69.7879
  521.5616  1287.7686      .7757     1.1153    69.7074
  521.7140  1140.4646      .8766     1.1777    69.5834
  521.8664   998.8309     1.0013     1.2565    69.4595
  522.0188   928.5809     1.0789     1.3389    69.3961
  522.1712   821.3427     1.2192     1.4104    69.6373
  522.3236   772.1136     1.2976     1.4620    69.8784
  522.4760   723.5232     1.3832     1.5032    70.1196
  522.6284   708.5171     1.4122     1.5321    70.3024
  522.7808   704.7451     1.4182     1.5475    70.3564
  522.9332   714.3229     1.3986     1.5508    70.3584
  523.0856   726.8201     1.3743     1.5523    70.3604
  523.2380   739.7759     1.3502     1.5502    70.3624
  523.3904   752.6228     1.3270     1.5454    70.3333
  523.5428   765.3782     1.3052     1.5407    70.1973
  523.6952   777.8375     1.2872     1.5360    70.0612
  523.8476   784.6804     1.2752     1.5330    69.9252
  524.0000   791.5233     1.2641     1.5305    69.7892
  524.1524   796.2959     1.2562     1.5288    69.8225
  524.3048   800.2898     1.2499     1.5300    69.8705
  524.4572   801.9827     1.2470     1.5403    69.9185
  524.6096   802.8422     1.2456     1.5462    69.9665
  524.7620   804.1083     1.2437     1.5484    69.9295
  524.9144   805.9546     1.2408     1.5485    69.8394
  525.0668   807.0507     1.2391     1.5410    69.8644
  525.2192   805.9655     1.2407     1.5356    70.0224
  525.3716   804.8804     1.2424     1.5309    70.1804
  525.5240   803.7952     1.2441     1.5263    70.3383
  525.6764   802.3788     1.2463     1.5245    70.3380
  525.8288   800.7493     1.2489     1.5205    70.2546
  525.9812   799.1198     1.2514     1.5157    70.2367
  526.1336   797.4908     1.2540     1.5132    70.3474
  526.2860   796.1516     1.2561     1.5143    70.4020
  526.4384   796.0714     1.2561     1.5157    70.4040
  526.5908   797.4056     1.2540     1.5154    70.4059
  526.7432   798.2765     1.2526     1.5116    70.4079
  526.8956   799.1357     1.2513     1.5092    70.4099
  527.0480   798.8770     1.2518     1.5116    70.3881
  527.2004   798.0256     1.2532     1.5129    70.2813
  527.3528   795.4687     1.2578     1.5129    70.1746
  527.5052   789.4803     1.2672     1.5146    70.0679
  527.6576   784.8412     1.2736     1.5168    70.0238
  527.8100   780.8511     1.2802     1.5198    70.0257
  527.9624   779.6045     1.2827     1.5220    70.0277
  528.1148   779.6089     1.2827     1.5182    70.0297
  528.2672   781.4897     1.2798     1.5177    70.1024
  528.4196   783.9634     1.2758     1.5174    70.1964
  528.5720   793.9263     1.2602     1.5074    70.2609
  528.7244   803.8367     1.2446     1.4921    70.3072
  528.8768   812.6073     1.2310     1.4754    70.3535
  529.0292   821.3779     1.2177     1.4587    70.3998
  529.1816   829.8989     1.2051     1.4407    70.4396
  529.3340   838.2184     1.1931     1.4220    70.4416
  529.4864   846.5377     1.1813     1.4076    70.4436
  529.6388   854.8571     1.1697     1.4024    70.4455
  529.7912   860.2661     1.1624     1.4002    70.4475
  529.9436   864.6188     1.1565     1.3951    70.4495
  530.0960   867.7356     1.1523     1.3873    70.4410
  530.2484   870.7289     1.1485     1.3782    70.4131
  530.4008   870.2947     1.1491     1.3727    70.3851
  530.5532   869.5490     1.1501     1.3712    70.3572
  530.7056   870.4353     1.1485     1.3681    70.3293
  530.8580   875.8733     1.1413     1.3655    70.3014
  531.0104   882.0720     1.1331     1.3659    70.2735
  531.1628   889.2463     1.1245     1.3754    70.2392
  531.3152   887.7382     1.1272     1.3800    70.2026
  531.4676   878.2058     1.1396     1.3822    70.1660
  531.6200   867.1405     1.1521     1.3822    70.1294
  531.7724   856.0338     1.1671     1.3882    70.0928
  531.9248   844.9075     1.1826     1.4027    70.1252
  532.0772   833.8511     1.1983     1.4142    70.2043
  532.2296   822.9572     1.2143     1.4351    70.2835
  532.3820   812.0632     1.2307     1.4587    70.3626
  532.5344   801.1693     1.2475     1.4729    70.4418
  532.6868   790.2444     1.2649     1.4832    70.4455
  532.8392   779.3043     1.2827     1.4916    70.3621
  532.9916   768.3643     1.3011     1.4997    70.3056
  533.1440   757.4242     1.3200     1.5063    70.4068
  533.2964   751.1621     1.3312     1.5099    70.5080
  533.4488   745.6324     1.3411     1.5202    70.6092
  533.6012   739.7407     1.3520     1.5402    70.6702
  533.7536   732.6915     1.3652     1.5573    70.5432
  533.9060   725.2622     1.3793     1.5664    70.4162
  534.0584   718.6451     1.3921     1.5705    70.2894
  534.2108   712.6042     1.4030     1.5700    70.1686
  534.3632   716.0062     1.3961     1.5634    70.0479
  534.5156   720.6487     1.3870     1.5569    69.9271
  534.6680   726.0542     1.3781     1.5520    69.9461
  534.8204   731.4597     1.3678     1.5472    70.0123
  534.9728   737.1200     1.3572     1.5424    70.0785
  535.1252   744.1317     1.3443     1.5376    70.2581
  535.2776   751.2334     1.3315     1.5328    70.4696
  535.4300   758.7455     1.3182     1.5290    70.6811
  535.5824   754.5995     1.3252     1.5286    70.6849
  535.7348   748.5581     1.3360     1.5266    70.6844
  535.8872   744.5308     1.3432     1.5248    70.6838
  536.0396   742.4036     1.3470     1.5248    70.6403
  536.1920   741.1257     1.3495     1.5264    70.5568
  536.3444   738.1005     1.3556     1.5345    70.4734
  536.4968   729.8441     1.3716     1.5436    70.3899
  536.6492   717.1597     1.3958     1.5510    70.3064
  536.8016   706.3391     1.4144     1.5531    70.2841
  536.9540   704.1263     1.4199     1.5544    70.2835
  537.1064   710.5746     1.4080     1.5528    70.2829
  537.2588   719.0969     1.3915     1.5551    70.3019
  537.4112   729.2715     1.3718     1.5563    70.3459
  537.5636   735.8280     1.3591     1.5505    70.3898
  537.7160   732.1527     1.3658     1.5396    70.4337
