~VERSION INFORMATION
VERS.                                                 2.0:   CWLS Log ASCII Standard-VERSION 2.0
WRAP.                                                  NO:   One line per depth step
~Well Information Block
STRT.M                                           359.8652:   Top Depth
STOP.M                                          1124.7608:   Bottom Depth
STEP.M                                             .15240:   Depth Increment
NULL.                                            -999.250:   Null Value
FLD .                                             WILDCAT:   Field Name
WELL.                                              16/2-1:   NAME
WBN .                                              16/2-1:   WELLBORE
NATI.                                                 NOR:   COUNTRY
BHT1.DEGF                                           100.0:   BH TEMP 1
BHT2.DEGF                                           165.0:   BH TEMP 2
BS1 .IN                                            12.250:   BIT SIZE 1
CTRY.                                                 NOR:   COUNTRY
CBD1.F                                             1192.0:   CSG 1 DRILL DEP
CBL1.F                                             1197.0:   CSG 1 LOG DEP
CS1 .IN                                           13.3750:   CSG 1 SIZE
COMP.                        ESSO EXPLORATION NORWAY INC.:   OPERATOR
PDAT.                                                 MSL:   PERM DATUM
PROV.                                  OFFSHORE NORTH SEA:   PROVINCE
COUN.                                      OCEAN TRAVELER:   RIG NAME
SPUD.                                          1967/07/11:   SPUD DATE
LATI.                                       58 53 35.40 N:   SURF. LATITUDE
LONG.                                        2 21 32.30 E:   SURF. LONGITUDE
BTD1.                                            3660.0 F:   TOTAL DEPTH 1
BTD2.                                            6267.0 F:   TOTAL DEPTH 2
PBWE.                                              16/2-1:   PB WELL ID
APIN.                                              16/2-1:   PB WELLBORE ID
PBWS.                                                 all:   PB WELL NAME SET
~PARAMETER INFORMATION (log)
LNAM.                                               IES-2:   NAME
LTYP.                                                 RAW:   LOG TYPE
LSRV.                                           INDUCTION:   LOG SERVICE
LSOU.                                             NPD/SPT:   LOG SOURCE
LVSN.                                                   1:   LOG VERSION
LRUN.                                                   2:   LOG RUN
BLI .F                                             3659.0:   BOTTOM DEPTH LOGGED
BHIS.                                                   R:   BRIEF HISTORY
R1  .                                OLD WELL NAME 16/2-1:   COMMENT  1
R2  .                                   LOGGED AS IEL-1-2:   COMMENT  2
R3  .                                 RUCKER DEVICE USED.:   COMMENT  3
DMF .                                                  RT:   DRILL MEAS FROM
EDF .F                                               85.0:   ELEV DRILL FLOOR
ENGI.                                              C.ROSS:   ENGINEER
TDD .F                                             3850.0:   FINAL TD DRILLER
TDL .F                                             3660.0:   FINAL TD LOGGER
DFL .                                                 4.0:   FLUID LOSS
FHIS.                                             RAW-LIS:   FULL HISTORY
EKB .F                                               85.0:   KB ELEVATION
LCNM.                                                SCHL:   LOGGING CONTRACTOR
LMF .                                                  RT:   LOGS MEAS FROM
DFD .                                        9.6000003815:   MUD DENSITY
DFPH.                                                10.0:   MUD PH
DFT .                                 W-SPERSENE XP-20 SW:   MUD TYPE
DFV .                                                45.0:   MUD VISCOSITY
RMS .OHMM                                    .31000000238:   RM
MSS .                                            FLOWLINE:   RM SOURCE
MST .DEGF                                            70.0:   RM TEMP
RMCS.OHMM                                    .77999997139:   RMC
MCST.DEGF                                            64.0:   RMC TEMP
RMFS.OHMM                                    .20999997854:   RMF
MMFS.                                              BAROID:   RMF SOURCE
MFST.DEGF                                            64.0:   RMF TEMP
TLAB.                                      1967/07/210900:   TIME LOGGER ON BOT
TCS .                                              9.0 HR:   TIME SINCE CIRCLN
TOOL.                                               IES-2:   TOOL STRING
TLI .F                                             1197.0:   TOP DEPTH LOGGED
WITN.                                             J.VOGEL:   WITNESS
~Curve Information Block
#MNEM.UNIT                                        API CODE    No Description
#=========                                        ========    == ===========
DEPT.M                                       00 001 00 00:     1  DEPTH
CILD.                                                    :     2  Deep induction conductivity
ILD.OHMM                                                 :     3  Deep induction resistivity
SN.OHMM                                                  :     4  Medium Resistivity
SP.MV                                                    :     5  Spontaneous potential
~ASCII
# ...
  938.3756   705.3960     1.4180     1.6916    70.6432
  938.5280   692.0900     1.4454     1.7059    70.6259
  938.6804   682.8267     1.4650     1.7218    70.6085
  938.8328   675.7557     1.4803     1.7371    70.5911
  938.9852   671.3756     1.4898     1.7462    70.5737
  939.1376   669.3781     1.4939     1.7438    70.5564
  939.2900   671.8660     1.4874     1.7467    70.5390
  939.4424   680.0076     1.4690     1.7490    70.5382
  939.5948   689.7103     1.4483     1.7492    70.5755
  939.7472   701.7041     1.4270     1.7374    70.6127
  939.8996   713.6980     1.4142     1.7285    70.6500
  940.0520   717.6007     1.4363     1.7196    70.6873
  940.2044   715.3654     1.4583     1.7237    70.7246
  940.3568   705.7639     1.4804     1.7286    70.7440
  940.5092   689.8865     1.5218     1.7418    70.7470
  940.6616   663.6675     1.5641     1.7595    70.7500
  940.8140   642.7594     1.6064     1.7942    70.9032
  940.9664   646.7344     1.5872     1.8547    71.0778
  941.1188   658.7266     1.5539     1.8875    71.1980
  941.2712   670.7183     1.5385     1.8747    71.2761
  941.4236   677.4442     1.5231     1.8402    71.3541
  941.5760   678.8187     1.5077     1.7914    71.3631
  941.7284   698.2526     1.4846     1.7409    71.3661
  941.8808   733.6494     1.4470     1.6854    71.3690
  942.0332   770.7642     1.3674     1.6290    71.3720
  942.1856   798.8932     1.2878     1.5882    71.3750
  942.3380   818.6902     1.2239     1.5622    71.3780
  942.4904   821.7358     1.2132     1.5440    71.3810
  942.6428   816.6088     1.2250     1.5369    71.4265
  942.7952   812.4639     1.2304     1.5464    71.5630
  942.9476   809.4142     1.2352     1.5422    71.5874
  943.1000   809.6053     1.2355     1.5208    71.4570
  943.2524   811.5499     1.2322     1.5155    71.2825
  943.4048   803.9316     1.2433     1.5332    71.0673
  943.5572   797.3046     1.2538     1.5469    70.8848
  943.7096   790.1595     1.2653     1.5517    70.7007
  943.8620   787.9447     1.2691     1.5561    70.7467
  944.0144   792.3396     1.2622     1.5567    70.9609
  944.1668   798.8612     1.2518     1.5501    71.1273
  944.3192   812.6818     1.2302     1.5439    71.1852
  944.4716   829.1392     1.2060     1.5380    71.1081
  944.6240   829.8750     1.2050     1.5213    71.0310
  944.7764   829.0638     1.2060     1.5052    70.9353
  944.9288   833.6624     1.1993     1.5056    70.8383
  945.0812   837.0730     1.1943     1.4950    70.8383
  945.2336   841.0342     1.1887     1.4801    70.8432
  945.3860   842.7932     1.1869     1.4900    70.8482
  945.5384   835.4724     1.1980     1.5090    70.7451
  945.6908   825.8647     1.2100     1.5212    70.6597
  945.8432   817.7808     1.2221     1.5216    70.6647
  945.9956   815.8057     1.2258     1.5149    70.6696
  946.1480   821.9169     1.2174     1.5057    70.6746
  946.3004   833.8834     1.2000     1.5036    70.6796
  946.4528   846.9803     1.1814     1.5115    70.6845
  946.6052   857.1844     1.1669     1.5059    70.6895
  946.7576   852.6559     1.1726     1.4739    71.0351
  946.9100   845.3984     1.1828     1.4413    71.4274
  947.0624   842.2465     1.1873     1.4642    71.4435
  947.2148   837.7236     1.1937     1.4987    71.3735
  947.3672   834.0740     1.1992     1.5062    71.2965
  947.5196   819.2836     1.2213     1.4982    71.1415
  947.6720   803.3177     1.2456     1.5130    70.9865
  947.8244   789.8953     1.2667     1.5276    70.7218
  947.9768   781.9684     1.2794     1.5255    70.6243
  948.1292   776.3704     1.2885     1.5230    70.8937
  948.2816   774.0254     1.2923     1.5228    71.1409
  948.4340   767.5483     1.3019     1.5211    71.1458
  948.5864   762.6139     1.3110     1.5183    71.0299
  948.7388   767.1025     1.3042     1.5157    70.8849
  948.8912   782.7026     1.2797     1.4989    70.7759
  949.0436   808.0082     1.2396     1.4608    70.8559
  949.1960   843.8365     1.1871     1.4109    70.9359
  949.3484   881.2821     1.1364     1.3527    71.1118
  949.5008   922.7266     1.0850     1.2915    71.3778
  949.6532   964.1710     1.0379     1.2427    71.6437
  949.8056  1002.8069      .9975     1.2078    71.9097
  949.9580  1057.5840      .9456     1.1735    72.2532
  950.1104  1104.2173      .9054     1.1384    72.6276
  950.2628  1142.2202      .8751     1.1110    72.7926
  950.4152  1167.8630      .8559     1.0898    72.7976
  950.5676  1187.0127      .8423     1.0789    72.8026
  950.7200  1194.6309      .8368     1.0624    72.8470
  950.8724  1200.4172      .8331     1.0501    72.9186
  951.0248  1197.9565      .8348     1.0420    72.9902
  951.1772  1195.9771      .8362     1.0368    73.0208
  951.3296  1195.3748      .8364     1.0348    73.0258
  951.4820  1198.3354      .8346     1.0303    72.8658
  951.6344  1205.7539      .8298     1.0245    72.6993
  951.7868  1212.5703      .8250     1.0179    72.6809
  951.9392  1216.4094      .8222     1.0115    72.7430
  952.0916  1215.9250      .8224     1.0070    72.8051
  952.2440  1211.0522      .8256     1.0072    72.8571
  952.3964  1206.0266      .8291     1.0104    72.8621
  952.5488  1201.9792      .8319     1.0138    72.8671
  952.7012  1200.8340      .8328     1.0185    72.8720
  952.8536  1197.3569      .8352     1.0263    72.8770
  953.0060  1187.5439      .8423     1.0383    72.8819
  953.1584  1154.0676      .8672     1.0529    72.8869
  953.3108  1105.3372      .9059     1.0752    72.8919
  953.4632  1055.4026      .9494     1.1038    72.8968
  953.6156  1004.4266      .9965     1.1423    72.8592
  953.7680   977.4008     1.0267     1.1783    72.6928
  953.9204   922.9728     1.0881     1.2003    72.5264
  954.0728   868.5229     1.1543     1.2360    72.3599
  954.2252   834.6982     1.1948     1.2863    71.9040
  954.3776   802.8265     1.2426     1.3349    71.3642
  954.5300   776.1735     1.2865     1.3658    71.2727
  954.6824   763.1136     1.3095     1.3911    71.2026
  954.8348   762.1227     1.3123     1.4080    71.1557
  954.9872   768.0288     1.3023     1.4069    71.1607
  955.1396   778.8480     1.2843     1.3944    71.1657
  955.2920   791.0573     1.2643     1.3839    71.0381
  955.4444   810.0131     1.2345     1.3698    71.0411
  955.5968   848.1588     1.1786     1.3390    71.1725
  955.7492   887.9713     1.1253     1.2954    71.3038
  955.9016   930.9620     1.0730     1.2523    71.4438
  956.0540   973.9700     1.0254     1.1922    71.5988
  956.2064  1018.2882      .9800     1.1517    71.7538
  956.3588  1064.9141      .9375     1.1338    71.9088
  956.5112  1101.7810      .9060     1.1208    72.0572
  956.6636  1137.8623      .8772     1.1082    72.1956
  956.8160  1166.8750      .8557     1.0802    72.3339
  956.9684  1184.9116      .8435     1.0537    72.2743
  957.1208  1192.7678      .8388     1.0350    71.9462
  957.2732  1199.9055      .8338     1.0105    71.6181
  957.4256  1211.8706      .8257      .9870    71.4385
  957.5780  1224.1626      .8173      .9701    71.4435
  957.7304  1237.3188      .8086      .9635    71.5717
  957.8828  1256.4497      .7964      .9607    71.8435
  958.0352  1279.2764      .7820      .9575    72.0223
  958.1876  1289.4053      .7756      .9529    72.1988
  958.3400  1292.9512      .7734      .9443    72.3753
  958.4924  1291.8645      .7741      .9366    72.4653
  958.6448  1287.7971      .7766      .9336    72.4702
  958.7972  1278.7117      .7821      .9307    72.4752
  958.9496  1274.3901      .7847      .9267    72.4871
  959.1020  1272.3323      .7860      .9259    72.7040
  959.2544  1271.6777      .7863      .9260    72.9209
  959.4068  1271.8779      .7860      .9261    73.0545
  959.5592  1276.9851      .7827      .9262    72.8995
  959.7116  1287.1365      .7764      .9253    72.7445
  959.8640  1298.3555      .7707      .9216    72.6559
  960.0164  1311.0632      .7633      .9169    72.5903
  960.1688  1323.7712      .7559      .9122    72.5247
  960.3212  1332.9092      .7505      .9108    72.6313
  960.4736  1338.9746      .7470      .9109    72.7506
