~VERSION INFORMATION
VERS.                                                 2.0:   CWLS Log ASCII Standard-VERSION 2.0
WRAP.                                                  NO:   One line per depth step
~Well Information Block
STRT.M                                           359.8652:   Top Depth
STOP.M                                          1124.7608:   Bottom Depth
STEP.M                                             .15240:   Depth Increment
NULL.                                            -999.250:   Null Value
FLD .                                             WILDCAT:   Field Name
WELL.                                              16/2-1:   NAME
WBN .                                              16/2-1:   WELLBORE
NATI.                                                 NOR:   COUNTRY
BHT1.DEGF                                           100.0:   BH TEMP 1
BHT2.DEGF                                           165.0:   BH TEMP 2
BS1 .IN                                            12.250:   BIT SIZE 1
CTRY.                                                 NOR:   COUNTRY
CBD1.F                                             1192.0:   CSG 1 DRILL DEP
CBL1.F                                             1197.0:   CSG 1 LOG DEP
CS1 .IN                                           13.3750:   CSG 1 SIZE
COMP.                        ESSO EXPLORATION NORWAY INC.:   OPERATOR
PDAT.                                                 MSL:   PERM DATUM
PROV.                                  OFFSHORE NORTH SEA:   PROVINCE
COUN.                                      OCEAN TRAVELER:   RIG NAME
SPUD.                                          1967/07/11:   SPUD DATE
LATI.                                       58 53 35.40 N:   SURF. LATITUDE
LONG.                                        2 21 32.30 E:   SURF. LONGITUDE
BTD1.                                            3660.0 F:   TOTAL DEPTH 1
BTD2.                                            6267.0 F:   TOTAL DEPTH 2
PBWE.                                              16/2-1:   PB WELL ID
APIN.                                              16/2-1:   PB WELLBORE ID
PBWS.                                                 all:   PB WELL NAME SET
~PARAMETER INFORMATION (log)
LNAM.                                               IES-2:   NAME
LTYP.                                                 RAW:   LOG TYPE
LSRV.                                           INDUCTION:   LOG SERVICE
LSOU.                                             NPD/SPT:   LOG SOURCE
LVSN.                                                   1:   LOG VERSION
LRUN.                                                   2:   LOG RUN
BLI .F                                             3659.0:   BOTTOM DEPTH LOGGED
BHIS.                                                   R:   BRIEF HISTORY
R1  .                                OLD WELL NAME 16/2-1:   COMMENT  1
R2  .                                   LOGGED AS IEL-1-2:   COMMENT  2
R3  .                                 RUCKER DEVICE USED.:   COMMENT  3
DMF .                                                  RT:   DRILL MEAS FROM
EDF .F                                               85.0:   ELEV DRILL FLOOR
ENGI.                                              C.ROSS:   ENGINEER
TDD .F                                             3850.0:   FINAL TD DRILLER
TDL .F                                             3660.0:   FINAL TD LOGGER
DFL .                                                 4.0:   FLUID LOSS
FHIS.                                             RAW-LIS:   FULL HISTORY
EKB .F                                               85.0:   KB ELEVATION
LCNM.                                                SCHL:   LOGGING CONTRACTOR
LMF .                                                  RT:   LOGS MEAS FROM
DFD .                                        9.6000003815:   MUD DENSITY
DFPH.                                                10.0:   MUD PH
DFT .                                 W-SPERSENE XP-20 SW:   MUD TYPE
DFV .                                                45.0:   MUD VISCOSITY
RMS .OHMM                                    .31000000238:   RM
MSS .                                            FLOWLINE:   RM SOURCE
MST .DEGF                                            70.0:   RM TEMP
RMCS.OHMM                                    .77999997139:   RMC
MCST.DEGF                                            64.0:   RMC TEMP
RMFS.OHMM                                    .20999997854:   RMF
MMFS.                                              BAROID:   RMF SOURCE
MFST.DEGF                                            64.0:   RMF TEMP
TLAB.                                      1967/07/210900:   TIME LOGGER ON BOT
TCS .                                              9.0 HR:   TIME SINCE CIRCLN
TOOL.                                               IES-2:   TOOL STRING
TLI .F                                             1197.0:   TOP DEPTH LOGGED
WITN.                                             J.VOGEL:   WITNESS
~Curve Information Block
#MNEM.UNIT                                        API CODE    No Description
#=========                                        ========    == ===========
DEPT.M                                       00 001 00 00:     1  DEPTH
CILD.                                                    :     2  Deep induction conductivity
ILD.OHMM                                                 :     3  Deep induction resistivity
SN.OHMM                                                  :     4  Medium Resistivity
SP.MV                                                    :     5  Spontaneous potential
~ASCII
# ...
  804.8732  1179.6758      .8471      .9281    72.1224
  805.0256  1196.9858      .8345      .9263    71.9752
  805.1780  1218.9326      .8215      .9110    71.8281
  805.3304  1234.8826      .8104      .9007    71.8005
  805.4828  1243.0994      .8045      .8979    71.8389
  805.6352  1241.2197      .8055      .9034    71.8774
  805.7876  1231.5166      .8117      .9047    71.9158
  805.9400  1216.5398      .8217      .9019    71.9543
  806.0924  1193.7952      .8374      .8994    71.9968
  806.2448  1196.8323      .8356      .9050    72.0400
  806.3972  1201.8574      .8321      .9025    72.0833
  806.5496  1203.5466      .8309      .8791    72.1265
  806.7020  1200.3047      .8332      .8781    72.1438
  806.8544  1184.7822      .8443      .8911    72.1409
  807.0068  1173.6584      .8515      .8955    72.1379
  807.1592  1200.6873      .8322      .8901    72.1712
  807.3116  1225.4443      .8153      .8946    72.2540
  807.4640  1247.9565      .8006      .8887    72.3368
  807.6164  1267.2507      .7886      .8818    72.4197
  807.7688  1272.8657      .7867      .8773    72.5025
  807.9212  1252.1582      .7978      .8768    72.3970
  808.0736  1235.2209      .8088      .8827    72.2438
  808.2260  1223.2393      .8170      .8898    72.0907
  808.3784  1219.1594      .8201      .8935    71.9375
  808.5308  1219.7749      .8199      .8886    71.9455
  808.6832  1228.5571      .8142      .8808    71.9855
  808.8356  1239.5286      .8069      .8782    72.0254
  808.9880  1250.4392      .7998      .8738    72.0653
  809.1404  1261.1677      .7930      .8693    72.0625
  809.2928  1275.2212      .7842      .8678    71.8993
  809.4452  1292.5261      .7736      .8645    71.7361
  809.5976  1312.6270      .7616      .8658    71.7325
  809.7500  1333.1128      .7498      .8671    71.7867
  809.9024  1348.3962      .7416      .8610    71.8409
  810.0548  1350.2783      .7408      .8486    71.9135
  810.2072  1340.1035      .7467      .8489    72.0370
  810.3596  1323.6162      .7557      .8651    72.1604
  810.5120  1319.6677      .7575      .8763    72.2561
  810.6644  1327.2996      .7537      .8827    72.1607
  810.8168  1336.6882      .7485      .8773    72.0653
  810.9692  1339.6003      .7465      .8738    72.2077
  811.1216  1341.0339      .7458      .8769    72.3878
  811.2740  1347.7385      .7421      .8764    72.2508
  811.4264  1350.4417      .7405      .8755    72.0516
  811.5788  1347.1633      .7422      .8796    72.0486
  811.7312  1331.2393      .7509      .8878    72.0456
  811.8836  1298.6548      .7698      .8989    72.0426
  812.0360  1251.0095      .7993      .9100    71.9629
  812.1884  1181.4265      .8468      .9219    71.8383
  812.3408  1111.8435      .9004      .9462    71.6991
  812.4932  1030.3486      .9719      .9903    71.6146
  812.6456   953.7776     1.0521     1.0572    71.4325
  812.7980   862.9645     1.1629     1.1296    71.4296
  812.9504   794.0297     1.2629     1.1759    71.2395
  813.1028   749.1074     1.3224     1.2029    71.0376
  813.2552   723.8492     1.3983     1.2351    71.0586
  813.4076   706.7605     1.4436     1.2556    71.0797
  813.5600   706.0238     1.4433     1.2578    71.1007
  813.7124   707.8118     1.4430     1.2630    71.1217
  813.8648   699.5812     1.4405     1.2613    71.1428
  814.0172   702.9545     1.4185     1.2508    71.1638
  814.1696   726.6616     1.3771     1.2400    71.1849
  814.3220   780.2428     1.2869     1.2018    71.1919
  814.4744   865.0817     1.1602     1.1529    71.1388
  814.6268   956.7849     1.0467     1.1062    71.0858
  814.7792  1028.8796      .9724     1.0449    71.0327
  814.9316  1145.6379      .8727      .9813    71.0820
  815.0840  1227.7407      .8138      .9333    71.4792
  815.2364  1308.3716      .7633      .9017    71.7788
  815.3888  1385.3796      .7206      .8756    71.7758
  815.5412  1454.0088      .6870      .8473    71.7728
  815.6936  1490.7917      .6702      .8217    72.3218
  815.8460  1511.8875      .6612      .8068    72.2209
  815.9984  1513.9077      .6610      .8017    72.1216
  816.1508  1500.2129      .6670      .8001    72.0553
  816.3032  1486.8586      .6721      .7982    71.9891
  816.4556  1482.3467      .6745      .7943    72.0036
  816.6080  1481.8596      .6748      .7867    72.1051
  816.7604  1488.8958      .6718      .7764    72.2066
  816.9128  1491.6604      .6704      .7687    72.3081
  817.0652  1479.6733      .6756      .7702    72.3027
  817.2176  1467.6804      .6812      .7705    72.2474
  817.3700  1461.0525      .6844      .7727    72.1922
  817.5224  1468.0037      .6812      .7724    72.1370
  817.6748  1479.7861      .6758      .7576    72.1280
  817.8272  1489.0908      .6715      .7501    72.3234
  817.9796  1493.6309      .6695      .7481    72.2917
  818.1320  1492.5271      .6701      .7468    72.2180
  818.2844  1488.2693      .6720      .7462    72.1444
  818.4368  1486.5156      .6727      .7461    72.1851
  818.5892  1489.9819      .6710      .7460    72.3022
  818.7416  1496.6682      .6681      .7439    72.4194
  818.8940  1498.2085      .6676      .7413    72.4464
  819.0464  1492.5530      .6698      .7344    72.2585
  819.1988  1485.2078      .6730      .7327    72.0844
  819.3512  1476.8235      .6769      .7321    71.9890
  819.5036  1467.8608      .6810      .7338    71.8946
  819.6560  1458.2722      .6855      .7338    72.1919
  819.8084  1452.5469      .6884      .7336    72.4831
  819.9608  1447.6274      .6907      .7304    72.4801
  820.1132  1442.7217      .6931      .7258    72.3680
  820.2656  1438.7434      .6950      .7228    72.2385
  820.4180  1434.8145      .6970      .7198    72.1090
  820.5704  1432.4397      .6981      .7175    72.0957
  820.7228  1431.8794      .6984      .7154    72.1261
  820.8752  1434.3145      .6972      .7125    72.1565
  821.0276  1432.1060      .6984      .7063    72.1869
  821.1800  1426.8040      .7011      .6995    72.2172
  821.3324  1422.3813      .7030      .6976    72.2476
  821.4848  1426.0815      .7009      .6976    72.1968
  821.6372  1436.7986      .6956      .6961    72.1231
  821.7896  1454.3079      .6870      .6900    72.0495
  821.9420  1474.4724      .6788      .6829    72.2395
  822.0944  1487.3701      .6725      .6807    72.0714
  822.2468  1492.8660      .6700      .6851    71.8968
  822.3992  1499.4626      .6670      .6885    71.9207
  822.5516  1506.7061      .6638      .6893    72.0420
  822.7040  1505.2292      .6643      .6897    72.1633
  822.8564  1496.5076      .6681      .6928    72.2846
  823.0088  1474.4771      .6781      .6975    72.4059
  823.1612  1450.1089      .6896      .7037    72.3706
  823.3136  1429.4282      .6996      .7132    72.3140
  823.4660  1413.4565      .7076      .7236    72.2574
  823.6184  1402.5320      .7131      .7354    72.2355
  823.7708  1392.7051      .7182      .7407    72.3193
  823.9232  1384.6978      .7224      .7448    72.4032
  824.0756  1376.6902      .7266      .7533    72.3716
  824.2280  1371.2390      .7293      .7643    72.3321
  824.3804  1372.5430      .7282      .7710    72.2926
  824.5328  1383.5583      .7222      .7718    72.2531
  824.6852  1401.1003      .7144      .7679    72.2135
  824.8376  1418.0317      .7057      .7588    72.1984
  824.9900  1433.3799      .6981      .7525    72.1964
  825.1424  1443.8662      .6927      .7530    72.1944
  825.2948  1448.7034      .6904      .7518    72.1925
  825.4472  1452.5630      .6885      .7498    72.1541
  825.5996  1456.0010      .6868      .7472    71.9625
  825.7520  1458.4294      .6857      .7440    71.7708
  825.9044  1456.9014      .6864      .7392    71.6047
  826.0568  1451.5615      .6889      .7345    71.8887
  826.2092  1445.9146      .6916      .7326    72.1726
  826.3616  1440.2676      .6944      .7327    72.4565
  826.5140  1434.8057      .6970      .7330    72.5734
  826.6664  1430.0105      .6994      .7316    72.5714
  826.8188  1428.7922      .6999      .7298    72.5211
  826.9712  1428.8733      .7000      .7275    72.4391
