~VERSION INFORMATION
VERS.                                                 2.0:   CWLS Log ASCII Standard-VERSION 2.0
WRAP.                                                  NO:   One line per depth step
~Well Information Block
STRT.M                                           359.8652:   Top Depth
STOP.M                                          1124.7608:   Bottom Depth
STEP.M                                             .15240:   Depth Increment
NULL.                                            -999.250:   Null Value
FLD .                                             WILDCAT:   Field Name
WELL.                                              16/2-1:   NAME
WBN .                                              16/2-1:   WELLBORE
NATI.                                                 NOR:   COUNTRY
BHT1.DEGF                                           100.0:   BH TEMP 1
BHT2.DEGF                                           165.0:   BH TEMP 2
BS1 .IN                                            12.250:   BIT SIZE 1
CTRY.                                                 NOR:   COUNTRY
CBD1.F                                             1192.0:   CSG 1 DRILL DEP
CBL1.F                                             1197.0:   CSG 1 LOG DEP
CS1 .IN                                           13.3750:   CSG 1 SIZE
COMP.                        ESSO EXPLORATION NORWAY INC.:   OPERATOR
PDAT.                                                 MSL:   PERM DATUM
PROV.                                  OFFSHORE NORTH SEA:   PROVINCE
COUN.                                      OCEAN TRAVELER:   RIG NAME
SPUD.                                          1967/07/11:   SPUD DATE
LATI.                                       58 53 35.40 N:   SURF. LATITUDE
LONG.                                        2 21 32.30 E:   SURF. LONGITUDE
BTD1.                                            3660.0 F:   TOTAL DEPTH 1
BTD2.                                            6267.0 F:   TOTAL DEPTH 2
PBWE.                                              16/2-1:   PB WELL ID
APIN.                                              16/2-1:   PB WELLBORE ID
PBWS.                                                 all:   PB WELL NAME SET
~PARAMETER INFORMATION (log)
LNAM.                                               IES-2:   NAME
LTYP.                                                 RAW:   LOG TYPE
LSRV.                                           INDUCTION:   LOG SERVICE
LSOU.                                             NPD/SPT:   LOG SOURCE
LVSN.                                                   1:   LOG VERSION
LRUN.                                                   2:   LOG RUN
BLI .F                                             3659.0:   BOTTOM DEPTH LOGGED
BHIS.                                                   R:   BRIEF HISTORY
R1  .                                OLD WELL NAME 16/2-1:   COMMENT  1
R2  .                                   LOGGED AS IEL-1-2:   COMMENT  2
R3  .                                 RUCKER DEVICE USED.:   COMMENT  3
DMF .                                                  RT:   DRILL MEAS FROM
EDF .F                                               85.0:   ELEV DRILL FLOOR
ENGI.                                              C.ROSS:   ENGINEER
TDD .F                                             3850.0:   FINAL TD DRILLER
TDL .F                                             3660.0:   FINAL TD LOGGER
DFL .                                                 4.0:   FLUID LOSS
FHIS.                                             RAW-LIS:   FULL HISTORY
EKB .F                                               85.0:   KB ELEVATION
LCNM.                                                SCHL:   LOGGING CONTRACTOR
LMF .                                                  RT:   LOGS MEAS FROM
DFD .                                        9.6000003815:   MUD DENSITY
DFPH.                                                10.0:   MUD PH
DFT .                                 W-SPERSENE XP-20 SW:   MUD TYPE
DFV .                                                45.0:   MUD VISCOSITY
RMS .OHMM                                    .31000000238:   RM
MSS .                                            FLOWLINE:   RM SOURCE
MST .DEGF                                            70.0:   RM TEMP
RMCS.OHMM                                    .77999997139:   RMC
MCST.DEGF                                            64.0:   RMC TEMP
RMFS.OHMM                                    .20999997854:   RMF
MMFS.                                              BAROID:   RMF SOURCE
MFST.DEGF                                            64.0:   RMF TEMP
TLAB.                                      1967/07/210900:   TIME LOGGER ON BOT
TCS .                                              9.0 HR:   TIME SINCE CIRCLN
TOOL.                                               IES-2:   TOOL STRING
TLI .F                                             1197.0:   TOP DEPTH LOGGED
WITN.                                             J.VOGEL:   WITNESS
~Curve Information Block
#MNEM.UNIT                                        API CODE    No Description
#=========                                        ========    == ===========
DEPT.M                                       00 001 00 00:     1  DEPTH
CILD.                                                    :     2  Deep induction conductivity
ILD.OHMM                                                 :     3  Deep induction resistivity
SN.OHMM                                                  :     4  Medium Resistivity
SP.MV                                                    :     5  Spontaneous potential
~ASCII
# ...
  560.1188   875.6117     1.1422     1.4039    70.4062
  560.2712   871.5800     1.1475     1.4097    70.2176
  560.4236   867.5482     1.1529     1.4138    70.1302
  560.5760   859.7787     1.1638     1.4131    70.1620
  560.7284   849.0371     1.1787     1.4116    70.1938
  560.8808   838.2955     1.1940     1.4135    70.2256
  561.0332   826.2914     1.2117     1.4205    70.2574
  561.1856   813.4045     1.2282     1.4350    70.2891
  561.3380   800.5581     1.2477     1.4598    70.3204
  561.4904   788.0717     1.2677     1.4926    70.3214
  561.6428   775.5851     1.2882     1.5086    70.3224
  561.7952   763.0986     1.3095     1.5093    70.3234
  561.9476   750.6122     1.3315     1.5102    70.3244
  562.1000   739.3165     1.3521     1.5120    70.3254
  562.2524   734.1733     1.3619     1.5161    70.3389
  562.4048   734.1633     1.3621     1.5210    70.3933
  562.5572   734.0989     1.3622     1.5258    70.4476
  562.7096   731.8958     1.3664     1.5306    70.5020
  562.8620   729.0726     1.3718     1.5369    70.5564
  563.0144   723.7834     1.3820     1.5439    70.6107
  563.1668   714.5284     1.4004     1.5490    70.6651
  563.3192   705.9285     1.4169     1.5578    70.7195
  563.4716   704.8053     1.4186     1.5727    70.6875
  563.6240   708.7246     1.4102     1.5834    70.6339
  563.7764   717.8331     1.3912     1.5763    70.5803
  563.9288   731.0714     1.3694     1.5626    70.5168
  564.0812   743.3805     1.3468     1.5486    70.4034
  564.2336   752.1179     1.3304     1.5308    70.2900
  564.3860   757.6545     1.3203     1.5115    70.1766
  564.5384   755.4514     1.3235     1.5053    70.1667
  564.6908   753.9342     1.3263     1.5235    70.2020
  564.8432   755.6711     1.3235     1.5417    70.2374
  564.9956   758.4653     1.3186     1.5323    70.2726
  565.1480   761.8724     1.3126     1.5102    70.3080
  565.3004   759.6630     1.3164     1.5054    70.3433
  565.4528   747.5819     1.3378     1.5210    70.4256
  565.6052   735.5007     1.3599     1.5361    70.5124
  565.7576   726.5251     1.3768     1.5498    70.5991
  565.9100   718.8374     1.3912     1.5656    70.6859
  566.0624   718.6810     1.3911     1.5846    70.7074
  566.2148   724.0854     1.3803     1.5895    70.5671
  566.3672   731.3070     1.3656     1.5779    70.4267
  566.5196   747.0811     1.3366     1.5613    70.3542
  566.6720   758.7228     1.3171     1.5527    70.3552
  566.8244   766.9993     1.3049     1.5422    70.3562
  566.9768   775.2725     1.2908     1.5271    70.3571
  567.1292   779.9761     1.2825     1.5169    70.3439
  567.2816   780.7084     1.2808     1.5183    70.2674
  567.4340   777.1940     1.2863     1.5322    70.1909
  567.5864   771.7487     1.2955     1.5518    70.1144
  567.7388   760.7736     1.3141     1.5690    70.0379
  567.8912   749.6866     1.3337     1.5859    69.9731
  568.0436   734.5876     1.3612     1.6004    70.0833
  568.1960   719.4886     1.3901     1.6065    70.1934
  568.3484   707.2406     1.4142     1.6123    70.3036
  568.5008   699.7980     1.4291     1.6159    70.3854
  568.6532   698.5511     1.4313     1.6179    70.4293
  568.8056   703.7073     1.4204     1.6161    70.4732
  568.9580   706.8774     1.4149     1.6135    70.5170
  569.1104   703.5338     1.4219     1.6100    70.5609
  569.2628   699.3289     1.4308     1.6036    70.5394
  569.4152   693.2882     1.4432     1.6003    70.5016
  569.5676   686.8099     1.4549     1.6067    70.4639
  569.7200   679.7631     1.4701     1.6121    70.4261
  569.8724   674.0834     1.4829     1.6122    70.3884
  570.0248   673.5051     1.4851     1.6092    70.3770
  570.1772   677.1146     1.4772     1.6061    70.3780
  570.3296   681.1238     1.4684     1.6030    70.3790
  570.4820   685.1329     1.4598     1.5987    70.3800
  570.6344   690.8040     1.4478     1.5847    70.3810
  570.7868   696.8218     1.4351     1.5704    70.3819
  570.9392   702.8373     1.4227     1.5511    70.3829
  571.0916   724.5709     1.3792     1.5275    70.3839
  571.2440   762.3396     1.3085     1.4990    70.3849
  571.3964   848.2972     1.1752     1.4721    70.3859
  571.5488   934.2549     1.0643     1.4379    70.3869
  571.7012  1059.9126      .9385     1.3842    70.4393
  571.8536  1158.6501      .8602     1.2978    70.4949
  572.0060  1202.6458      .8305     1.1954    70.5505
  572.1584  1224.3147      .8157     1.1148    70.5662
  572.3108  1245.5684      .8037     1.1083    70.4921
  572.4632  1263.6240      .7922     1.1359    70.4181
  572.6156  1249.7720      .7991     1.1751    70.3938
  572.7680  1186.3069      .8402     1.2076    70.3948
  572.9204  1098.1152      .9076     1.2226    70.3958
  573.0728  1007.4106      .9898     1.2251    70.3968
  573.2252   931.9149     1.0719     1.2198    70.2757
  573.3776   905.0833     1.1044     1.1870    70.1354
  573.5300   892.8293     1.1199     1.1267    70.0030
  573.6824   882.4374     1.1333     1.1049    70.0040
  573.8348   873.7150     1.1447     1.1100    70.0050
  573.9872   864.9927     1.1563     1.1298    70.0060
  574.1396   853.2153     1.1727     1.1665    70.0127
  574.2920   838.7271     1.1931     1.2255    70.0769
  574.4444   824.9182     1.2124     1.3174    70.1411
  574.5968   823.1853     1.2140     1.3920    70.2053
  574.7492   833.8104     1.1977     1.4319    70.2695
  574.9016   850.8202     1.1735     1.4361    70.3337
  575.0540   868.2898     1.1531     1.4108    70.3979
  575.2064   879.4734     1.1376     1.3715    70.4621
  575.3588   869.3768     1.1490     1.3446    70.5263
  575.5112   852.4769     1.1718     1.3477    70.5905
  575.6636   836.0225     1.1951     1.3744    70.5594
  575.8160   819.6899     1.2191     1.4289    70.4820
  575.9684   803.3575     1.2441     1.4898    70.4047
  576.1208   773.8369     1.2914     1.5482    70.3273
  576.2732   738.4885     1.3537     1.5871    70.2500
  576.4256   703.2119     1.4221     1.6146    70.1726
  576.5780   693.7174     1.4410     1.6293    70.0953
  576.7304   729.3533     1.3688     1.6297    70.0264
  576.8828   802.8041     1.2417     1.6059    70.0627
  577.0352   895.9631     1.1119     1.5700    70.0991
  577.1876   989.1223     1.0078     1.5003    70.1354
  577.3400  1079.2012      .9256     1.4075    70.1717
  577.4924  1090.1353      .9186     1.3132    70.2080
  577.6448  1070.0479      .9353     1.2509    70.2485
  577.7972  1061.3145      .9419     1.2334    70.2940
  577.9496  1041.8877      .9581     1.2666    70.3394
  578.1020  1001.1927      .9963     1.3533    70.3849
  578.2544   931.6158     1.0665     1.4756    70.4304
  578.4068   818.1854     1.2151     1.5834    70.4836
  578.5592   724.6716     1.3747     1.6513    70.5368
  578.7116   675.5460     1.4782     1.6710    70.5900
  578.8640   659.3824     1.5160     1.6742    70.6182
  579.0164   663.2504     1.5079     1.6681    70.5441
  579.1688   679.2828     1.4721     1.6552    70.4700
  579.3212   694.3551     1.4399     1.6496    70.3958
  579.4736   704.6456     1.4189     1.6539    70.3217
  579.6260   709.2180     1.4098     1.6579    70.2476
  579.7784   709.1439     1.4105     1.6634    70.2421
  579.9308   703.7710     1.4213     1.6704    70.2431
  580.0832   699.3276     1.4304     1.6756    70.2440
  580.2356   695.0089     1.4394     1.6805    70.2450
  580.3880   692.0890     1.4452     1.6832    70.2460
  580.5404   690.2238     1.4486     1.6862    70.2470
  580.6928   689.6078     1.4502     1.6946    70.2480
  580.8452   690.6946     1.4480     1.7023    70.2490
  580.9976   692.8390     1.4437     1.7041    70.2500
  581.1500   695.6677     1.4377     1.7009    70.2510
  581.3024   698.4965     1.4319     1.6932    70.2520
  581.4548   700.8091     1.4270     1.6840    70.2530
  581.6072   702.9927     1.4226     1.6729    70.2820
  581.7596   713.8081     1.4011     1.6602    70.3155
  581.9120   724.8560     1.3796     1.6522    70.3490
  582.0644   736.3613     1.3578     1.6436    70.3825
  582.2168   747.8668     1.3367     1.6348    70.4159
