~VERSION INFORMATION
VERS.                                                 2.0:   CWLS Log ASCII Standard-VERSION 2.0
WRAP.                                                  NO:   One line per depth step
~Well Information Block
STRT.M                                           359.8652:   Top Depth
STOP.M                                          1124.7608:   Bottom Depth
STEP.M                                             .15240:   Depth Increment
NULL.                                            -999.250:   Null Value
FLD .                                             WILDCAT:   Field Name
WELL.                                              16/2-1:   NAME
WBN .                                              16/2-1:   WELLBORE
NATI.                                                 NOR:   COUNTRY
BHT1.DEGF                                           100.0:   BH TEMP 1
BHT2.DEGF                                           165.0:   BH TEMP 2
BS1 .IN                                            12.250:   BIT SIZE 1
CTRY.                                                 NOR:   COUNTRY
CBD1.F                                             1192.0:   CSG 1 DRILL DEP
CBL1.F                                             1197.0:   CSG 1 LOG DEP
CS1 .IN                                           13.3750:   CSG 1 SIZE
COMP.                        ESSO EXPLORATION NORWAY INC.:   OPERATOR
PDAT.                                                 MSL:   PERM DATUM
PROV.                                  OFFSHORE NORTH SEA:   PROVINCE
COUN.                                      OCEAN TRAVELER:   RIG NAME
SPUD.                                          1967/07/11:   SPUD DATE
LATI.                                       58 53 35.40 N:   SURF. LATITUDE
LONG.                                        2 21 32.30 E:   SURF. LONGITUDE
BTD1.                                            3660.0 F:   TOTAL DEPTH 1
BTD2.                                            6267.0 F:   TOTAL DEPTH 2
PBWE.                                              16/2-1:   PB WELL ID
APIN.                                              16/2-1:   PB WELLBORE ID
PBWS.                                                 all:   PB WELL NAME SET
~PARAMETER INFORMATION (log)
LNAM.                                               IES-2:   NAME
LTYP.                                                 RAW:   LOG TYPE
LSRV.                                           INDUCTION:   LOG SERVICE
LSOU.                                             NPD/SPT:   LOG SOURCE
LVSN.                                                   1:   LOG VERSION
LRUN.                                                   2:   LOG RUN
BLI .F                                             3659.0:   BOTTOM DEPTH LOGGED
BHIS.                                                   R:   BRIEF HISTORY
R1  .                                OLD WELL NAME 16/2-1:   COMMENT  1
R2  .                                   LOGGED AS IEL-1-2:   COMMENT  2
R3  .                                 RUCKER DEVICE USED.:   COMMENT  3
DMF .                                                  RT:   DRILL MEAS FROM
EDF .F                                               85.0:   ELEV DRILL FLOOR
ENGI.                                              C.ROSS:   ENGINEER
TDD .F                                             3850.0:   FINAL TD DRILLER
TDL .F                                             3660.0:   FINAL TD LOGGER
DFL .                                                 4.0:   FLUID LOSS
FHIS.                                             RAW-LIS:   FULL HISTORY
EKB .F                                               85.0:   KB ELEVATION
LCNM.                                                SCHL:   LOGGING CONTRACTOR
LMF .                                                  RT:   LOGS MEAS FROM
DFD .                                        9.6000003815:   MUD DENSITY
DFPH.                                                10.0:   MUD PH
DFT .                                 W-SPERSENE XP-20 SW:   MUD TYPE
DFV .                                                45.0:   MUD VISCOSITY
RMS .OHMM                                    .31000000238:   RM
MSS .                                            FLOWLINE:   RM SOURCE
MST .DEGF                                            70.0:   RM TEMP
RMCS.OHMM                                    .77999997139:   RMC
MCST.DEGF                                            64.0:   RMC TEMP
RMFS.OHMM                                    .20999997854:   RMF
MMFS.                                              BAROID:   RMF SOURCE
MFST.DEGF                                            64.0:   RMF TEMP
TLAB.                                      1967/07/210900:   TIME LOGGER ON BOT
TCS .                                              9.0 HR:   TIME SINCE CIRCLN
TOOL.                                               IES-2:   TOOL STRING
TLI .F                                             1197.0:   TOP DEPTH LOGGED
WITN.                                             J.VOGEL:   WITNESS
~Curve Information Block
#MNEM.UNIT                                        API CODE    No Description
#=========                                        ========    == ===========
DEPT.M                                       00 001 00 00:     1  DEPTH
CILD.                                                    :     2  Deep induction conductivity
ILD.OHMM                                                 :     3  Deep induction resistivity
SN.OHMM                                                  :     4  Medium Resistivity
SP.MV                                                    :     5  Spontaneous potential
~ASCII
# ...
  760.3724   664.2520     1.5589     1.8409    69.9913
  760.5248   654.5876     1.5761     1.8580    70.1406
  760.6772   644.9987     1.5933     1.8814    70.2899
  760.8296   635.9398     1.6190     1.9057    70.1659
  760.9820   626.8811     1.6591     1.9194    70.0152
  761.1344   617.8223     1.6892     1.9231    69.9593
  761.2868   612.5339     1.7022     1.9229    70.1586
  761.4392   613.0937     1.6922     1.9223    70.2998
  761.5916   618.4687     1.6811     1.9139    70.2721
  761.7440   624.4933     1.6611     1.9064    70.1294
  761.8964   630.4679     1.6410     1.8985    70.3210
  762.0488   635.4869     1.6210     1.8889    70.4702
  762.2012   640.2933     1.6047     1.8777    70.4938
  762.3536   642.1522     1.6106     1.8680    70.4925
  762.5060   644.0110     1.6165     1.8681    70.5326
  762.6584   642.2297     1.6223     1.8697    70.6112
  762.8108   640.1176     1.6232     1.8775    70.6820
  762.9632   637.7396     1.6231     1.8871    70.5610
  763.1156   633.1230     1.6230     1.8995    70.4400
  763.2680   628.5065     1.6331     1.9116    70.3189
  763.4204   624.0018     1.6487     1.9180    70.2308
  763.5728   624.6550     1.6568     1.9209    70.1547
  763.7252   628.2692     1.6467     1.9187    70.0596
  763.8776   641.1825     1.6212     1.9084    69.7588
  764.0300   653.7946     1.5837     1.8985    69.5342
  764.1824   663.8049     1.5461     1.8854    69.6915
  764.3348   672.6274     1.5223     1.8576    69.8817
  764.4872   675.6417     1.4997     1.8274    69.8804
  764.6396   678.6233     1.4832     1.8102    69.9076
  764.7920   681.4607     1.4831     1.7995    70.1240
  764.9444   684.2980     1.4830     1.7968    70.3405
  765.0968   685.1877     1.4829     1.8030    70.5569
  765.2492   675.8879     1.5453     1.8115    70.5483
  765.4016   664.1848     1.5692     1.8214    70.3075
  765.5540   652.9073     1.5930     1.8334    70.0694
  765.7064   641.4482     1.6168     1.8492    70.0681
  765.8588   633.7374     1.6406     1.8684    70.0668
  766.0112   629.1208     1.6604     1.8785    70.0656
  766.1636   624.1392     1.6602     1.8815    70.0659
  766.3160   618.6807     1.6601     1.8887    70.1020
  766.4684   612.8872     1.6600     1.9000    70.1382
  766.6208   616.8784     1.6599     1.8987    70.1743
  766.7732   622.4801     1.6473     1.8887    70.2104
  766.9256   629.2583     1.6295     1.8778    70.2466
  767.0780   644.5427     1.6116     1.8469    70.2827
  767.2304   657.4104     1.5938     1.8162    70.3188
  767.3828   662.6859     1.5801     1.7889    70.3550
  767.5352   658.9149     1.5800     1.7624    70.3911
  767.6876   662.5815     1.5741     1.7820    70.4273
  767.8400   666.8828     1.5509     1.7897    70.4463
  767.9924   672.2721     1.5278     1.7650    70.4450
  768.1448   682.2925     1.5047     1.7438    70.4437
  768.2972   690.7593     1.4815     1.7553    70.4424
  768.4496   693.1726     1.4780     1.7386    70.4412
  768.6020   697.0177     1.4589     1.7032    70.4399
  768.7544   702.0349     1.4399     1.6556    70.4386
  768.9068   714.0154     1.4209     1.6152    70.4373
  769.0592   731.7687     1.3776     1.6123    70.4360
  769.2116   754.5686     1.3445     1.6297    70.4348
  769.3640   766.6200     1.3635     1.6321    70.4335
  769.5164   752.6809     1.3825     1.6222    70.4300
  769.6688   737.0424     1.4015     1.6266    70.3808
  769.8212   713.4718     1.4215     1.6750    70.3316
  769.9736   699.8275     1.4692     1.7118    70.2824
  770.1260   692.6213     1.5118     1.7078    70.2332
  770.2784   684.5874     1.5458     1.6980    70.2519
  770.4308   673.4495     1.5802     1.7248    70.2772
  770.5832   653.3088     1.6200     1.7590    70.3026
  770.7356   641.3865     1.6561     1.8059    70.3279
  770.8880   638.7739     1.6468     1.8374    70.3533
  771.0404   641.7880     1.6375     1.8391    70.3786
  771.1928   649.1440     1.6106     1.8076    70.4039
  771.3452   657.8462     1.5824     1.7874    70.3913
  771.4976   663.8624     1.5573     1.7782    70.3355
  771.6500   664.6421     1.5571     1.7806    70.2798
  771.8024   661.6122     1.5570     1.8126    70.2240
  771.9548   657.1265     1.5569     1.8465    70.1683
  772.1072   653.1287     1.5568     1.8712    70.1125
  772.2596   653.4816     1.5567     1.8580    70.0567
  772.4120   655.9148     1.5790     1.8464    70.0307
  772.5644   656.7494     1.6017     1.8463    70.1293
  772.7168   652.0609     1.6244     1.8303    70.2278
  772.8692   644.8553     1.6444     1.8140    70.3264
  773.0216   637.2919     1.6619     1.8306    70.4249
  773.1740   629.2885     1.6793     1.8820    70.5234
  773.3264   621.2820     1.6968     1.9066    70.5576
  773.4788   612.8038     1.7143     1.9163    70.3850
  773.6312   603.7953     1.7317     1.9354    70.2126
  773.7836   593.3226     1.7954     1.9630    69.9999
  773.9360   582.4912     1.8650     1.9879    69.9986
  774.0884   580.3262     1.8305     1.9898    69.9973
  774.2408   583.4147     1.7843     1.9751    69.9960
  774.3932   591.8386     1.7516     1.9713    69.9948
  774.5456   600.2870     1.7233     1.9751    69.9935
  774.6980   608.7792     1.6951     1.9689    70.3132
  774.8504   617.2714     1.6837     1.9514    70.2988
  775.0028   623.4230     1.6734     1.9317    70.1886
  775.1552   627.6399     1.6631     1.9121    70.1865
  775.3076   631.8568     1.6528     1.8947    70.3834
  775.4600   635.7867     1.6425     1.8838    70.3821
  775.6124   638.8016     1.6322     1.8807    70.3808
  775.7648   641.8167     1.6219     1.8799    70.3795
  775.9172   643.0516     1.6146     1.8818    70.3434
  776.0696   643.0616     1.6223     1.8909    70.1788
  776.2220   640.3309     1.6300     1.8958    70.1775
  776.3744   635.8328     1.6377     1.8916    70.1762
  776.5268   631.3345     1.6453     1.8869    70.1749
  776.6792   625.3916     1.6530     1.8957    70.2594
  776.8316   624.6266     1.6607     1.9002    70.3705
  776.9840   626.8210     1.6684     1.8957    70.3693
  777.1364   630.5079     1.6622     1.8933    70.3680
  777.2888   634.5245     1.6450     1.8902    70.3667
  777.4412   637.0222     1.6278     1.8799    70.3654
  777.5936   639.1326     1.6132     1.8633    70.3641
  777.7460   635.7083     1.6263     1.8434    70.3628
  777.8984   630.0754     1.6395     1.8186    70.2657
  778.0508   628.3958     1.6481     1.7856    70.1815
  778.2032   641.4354     1.6180     1.7619    70.3134
  778.3556   667.6942     1.5281     1.7438    70.3577
  778.5080   701.3844     1.4286     1.7212    70.3564
  778.6604   737.2327     1.3582     1.6816    70.4234
  778.8128   767.0315     1.3045     1.6105    70.6219
  778.9652   776.0334     1.2887     1.5396    70.7490
  779.1176   772.4850     1.2945     1.5219    70.7478
  779.2700   770.5070     1.2979     1.5267    70.7465
  779.4224   766.2098     1.3052     1.5006    70.7452
  779.5748   767.2605     1.3031     1.4551    70.7439
  779.7272   773.2841     1.2929     1.4376    70.7426
  779.8796   770.9249     1.2975     1.4547    70.6314
  780.0320   772.4221     1.2937     1.4644    70.4803
  780.1844   785.5533     1.2719     1.4587    70.3423
  780.3368   789.2430     1.2686     1.4351    70.3410
  780.4892   777.3439     1.2868     1.4074    70.3397
  780.6416   773.7461     1.2923     1.4150    70.3384
  780.7940   779.3912     1.2820     1.4385    70.8228
  780.9464   791.5461     1.2650     1.4299    71.2002
  781.0988   804.6774     1.2442     1.4151    71.3259
  781.2512   805.7136     1.2410     1.4134    71.2909
  781.4036   788.5642     1.2666     1.4208    70.9745
  781.5560   757.6511     1.3172     1.4231    70.6438
  781.7084   725.0254     1.3768     1.4329    70.5510
  781.8608   694.1804     1.4384     1.4638    70.6202
  782.0132   693.9945     1.4414     1.5089    70.6894
  782.1656   716.9125     1.3958     1.5122    70.7221
  782.3180   748.4236     1.3367     1.4634    70.7208
  782.4704   778.7532     1.2842     1.4144    70.7196
