~VERSION INFORMATION
VERS.                                                 2.0:   CWLS Log ASCII Standard-VERSION 2.0
WRAP.                                                  NO:   One line per depth step
~Well Information Block
STRT.M                                           359.8652:   Top Depth
STOP.M                                          1124.7608:   Bottom Depth
STEP.M                                             .15240:   Depth Increment
NULL.                                            -999.250:   Null Value
FLD .                                             WILDCAT:   Field Name
WELL.                                              16/2-1:   NAME
WBN .                                              16/2-1:   WELLBORE
NATI.                                                 NOR:   COUNTRY
BHT1.DEGF                                           100.0:   BH TEMP 1
BHT2.DEGF                                           165.0:   BH TEMP 2
BS1 .IN                                            12.250:   BIT SIZE 1
CTRY.                                                 NOR:   COUNTRY
CBD1.F                                             1192.0:   CSG 1 DRILL DEP
CBL1.F                                             1197.0:   CSG 1 LOG DEP
CS1 .IN                                           13.3750:   CSG 1 SIZE
COMP.                        ESSO EXPLORATION NORWAY INC.:   OPERATOR
PDAT.                                                 MSL:   PERM DATUM
PROV.                                  OFFSHORE NORTH SEA:   PROVINCE
COUN.                                      OCEAN TRAVELER:   RIG NAME
SPUD.                                          1967/07/11:   SPUD DATE
LATI.                                       58 53 35.40 N:   SURF. LATITUDE
LONG.                                        2 21 32.30 E:   SURF. LONGITUDE
BTD1.                                            3660.0 F:   TOTAL DEPTH 1
BTD2.                                            6267.0 F:   TOTAL DEPTH 2
PBWE.                                              16/2-1:   PB WELL ID
APIN.                                              16/2-1:   PB WELLBORE ID
PBWS.                                                 all:   PB WELL NAME SET
~PARAMETER INFORMATION (log)
LNAM.                                               IES-2:   NAME
LTYP.                                                 RAW:   LOG TYPE
LSRV.                                           INDUCTION:   LOG SERVICE
LSOU.                                             NPD/SPT:   LOG SOURCE
LVSN.                                                   1:   LOG VERSION
LRUN.                                                   2:   LOG RUN
BLI .F                                             3659.0:   BOTTOM DEPTH LOGGED
BHIS.                                                   R:   BRIEF HISTORY
R1  .                                OLD WELL NAME 16/2-1:   COMMENT  1
R2  .                                   LOGGED AS IEL-1-2:   COMMENT  2
R3  .                                 RUCKER DEVICE USED.:   COMMENT  3
DMF .                                                  RT:   DRILL MEAS FROM
EDF .F                                               85.0:   ELEV DRILL FLOOR
ENGI.                                              C.ROSS:   ENGINEER
TDD .F                                             3850.0:   FINAL TD DRILLER
TDL .F                                             3660.0:   FINAL TD LOGGER
DFL .                                                 4.0:   FLUID LOSS
FHIS.                                             RAW-LIS:   FULL HISTORY
EKB .F                                               85.0:   KB ELEVATION
LCNM.                                                SCHL:   LOGGING CONTRACTOR
LMF .                                                  RT:   LOGS MEAS FROM
DFD .                                        9.6000003815:   MUD DENSITY
DFPH.                                                10.0:   MUD PH
DFT .                                 W-SPERSENE XP-20 SW:   MUD TYPE
DFV .                                                45.0:   MUD VISCOSITY
RMS .OHMM                                    .31000000238:   RM
MSS .                                            FLOWLINE:   RM SOURCE
MST .DEGF                                            70.0:   RM TEMP
RMCS.OHMM                                    .77999997139:   RMC
MCST.DEGF                                            64.0:   RMC TEMP
RMFS.OHMM                                    .20999997854:   RMF
MMFS.                                              BAROID:   RMF SOURCE
MFST.DEGF                                            64.0:   RMF TEMP
TLAB.                                      1967/07/210900:   TIME LOGGER ON BOT
TCS .                                              9.0 HR:   TIME SINCE CIRCLN
TOOL.                                               IES-2:   TOOL STRING
TLI .F                                             1197.0:   TOP DEPTH LOGGED
WITN.                                             J.VOGEL:   WITNESS
~Curve Information Block
#MNEM.UNIT                                        API CODE    No Description
#=========                                        ========    == ===========
DEPT.M                                       00 001 00 00:     1  DEPTH
CILD.                                                    :     2  Deep induction conductivity
ILD.OHMM                                                 :     3  Deep induction resistivity
SN.OHMM                                                  :     4  Medium Resistivity
SP.MV                                                    :     5  Spontaneous potential
~ASCII
# ...
  448.8668   800.7412     1.2488     1.3840    70.9385
  449.0192   798.4369     1.2525     1.3887    70.9402
  449.1716   796.1324     1.2562     1.3937    70.9386
  449.3240   789.8712     1.2663     1.4033    70.9003
  449.4764   783.0830     1.2774     1.4130    70.8620
  449.6288   776.5645     1.2881     1.4202    70.8237
  449.7812   770.8860     1.2977     1.4261    70.7854
  449.9336   765.2064     1.3074     1.4337    70.7783
  450.0860   761.0509     1.3142     1.4473    70.9918
  450.2384   758.8501     1.3182     1.4591    71.2053
  450.3908   755.1292     1.3238     1.4685    71.3521
  450.5432   750.4850     1.3319     1.4758    71.3538
  450.6956   744.0270     1.3431     1.4817    71.3555
  450.8480   735.5817     1.3587     1.4918    71.3572
  451.0004   727.1346     1.3746     1.5043    71.3589
  451.1528   718.0419     1.3921     1.5150    71.3606
  451.3052   705.9714     1.4159     1.5301    71.3623
  451.4576   693.9011     1.4408     1.5516    71.3640
  451.6100   681.8307     1.4665     1.5762    71.1508
  451.7624   669.7627     1.4931     1.5993    70.8524
  451.9148   662.3091     1.5101     1.6166    70.5854
  452.0672   656.0464     1.5244     1.6251    70.7205
  452.2196   655.2769     1.5258     1.6276    70.8556
  452.3720   660.3722     1.5137     1.6294    70.9775
  452.5244   666.9161     1.4985     1.6246    70.9792
  452.6768   675.9364     1.4782     1.6123    70.9809
  452.8292   685.6851     1.4570     1.5943    70.9826
  452.9816   694.7848     1.4386     1.5775    70.9843
  453.1340   699.3971     1.4304     1.5607    70.9561
  453.2864   704.0094     1.4211     1.5478    70.8946
  453.4388   705.2759     1.4180     1.5419    70.8331
  453.5912   704.9524     1.4183     1.5445    70.8595
  453.7436   701.4996     1.4252     1.5508    71.0612
  453.8960   698.0173     1.4324     1.5534    71.2068
  454.0484   692.6499     1.4434     1.5604    71.2486
  454.2008   687.2825     1.4548     1.5680    71.2903
  454.3532   681.8507     1.4665     1.5785    71.3320
  454.5056   675.0601     1.4814     1.5833    71.3737
  454.6580   668.2709     1.4966     1.5925    71.3160
  454.8104   661.2421     1.5126     1.6006    71.1058
  454.9628   653.8639     1.5299     1.6087    70.8955
  455.1152   646.4858     1.5475     1.6178    70.8096
  455.2676   641.3669     1.5594     1.6286    70.8113
  455.4200   639.1644     1.5647     1.6376    70.7890
  455.5724   639.2531     1.5641     1.6515    70.7361
  455.7248   640.7435     1.5604     1.6589    70.6832
  455.8772   642.2343     1.5573     1.6584    70.6304
  456.0296   650.6455     1.5384     1.6478    70.6616
  456.1820   662.8464     1.5106     1.6299    70.7134
  456.3344   675.8459     1.4812     1.6137    70.7651
  456.4868   688.0128     1.4546     1.5997    70.8168
  456.6392   700.0111     1.4295     1.5917    70.9182
  456.7916   709.8627     1.4092     1.5779    71.0293
  456.9440   713.6267     1.4014     1.5642    71.1510
  457.0964   714.3109     1.4000     1.5557    71.3171
  457.2488   719.7679     1.3893     1.5541    71.3428
  457.4012   721.6093     1.3858     1.5541    71.1865
  457.5536   723.4501     1.3823     1.5537    71.0302
  457.7060   722.6317     1.3839     1.5565    70.8738
  457.8584   721.0886     1.3873     1.5574    70.8873
  458.0108   715.0420     1.3991     1.5574    70.9583
  458.1632   708.8322     1.4117     1.5574    71.0293
  458.3156   701.3163     1.4270     1.5575    70.9984
  458.4680   693.8003     1.4423     1.5611    70.9611
  458.6204   686.2858     1.4559     1.5731    70.9239
  458.7728   678.7698     1.4722     1.5887    70.8866
  458.9252   671.2538     1.4888     1.6066    70.8493
  459.0776   663.8184     1.5057     1.6210    70.7734
  459.2300   661.3928     1.5118     1.6297    70.6775
  459.3824   658.9673     1.5174     1.6360    70.5816
  459.5348   659.1599     1.5172     1.6350    70.4858
  459.6872   663.6100     1.5070     1.6261    70.4668
  459.8396   668.8671     1.4950     1.6123    70.5152
  459.9920   674.1090     1.4833     1.5951    70.5636
  460.1444   679.1692     1.4721     1.5868    70.6119
  460.2968   684.2295     1.4611     1.5841    70.6881
  460.4492   689.2886     1.4500     1.5814    70.8046
  460.6016   697.8853     1.4319     1.5760    70.9212
  460.7540   706.7031     1.4139     1.5657    71.0378
  460.9064   715.4148     1.3965     1.5518    71.1543
  461.0588   724.0040     1.3822     1.5392    71.1838
  461.2112   731.9502     1.3672     1.5306    70.9991
  461.3636   736.3198     1.3586     1.5227    70.8238
  461.5160   739.2117     1.3529     1.5135    70.7039
  461.6684   739.1991     1.3528     1.5086    70.5840
  461.8208   735.0349     1.3601     1.5134    70.4641
  461.9732   728.9880     1.3715     1.5252    70.4939
  462.1256   720.8569     1.3871     1.5421    70.5514
  462.2780   709.3403     1.4098     1.5582    70.6089
  462.4304   697.8262     1.4333     1.5733    70.6664
  462.5828   686.3096     1.4574     1.5855    70.7239
  462.7352   677.9836     1.4755     1.5948    70.7814
  462.8876   669.9226     1.4934     1.6023    70.8389
  463.0400   662.8641     1.5094     1.6104    70.8820
  463.1924   655.8625     1.5257     1.6279    70.9238
  463.3448   648.8610     1.5420     1.6434    70.9655
  463.4972   644.8766     1.5512     1.6553    71.0072
  463.6496   641.5800     1.5581     1.6629    71.0339
  463.8020   641.5664     1.5587     1.6636    70.9541
  463.9544   642.9687     1.5557     1.6585    70.8743
  464.1068   650.4846     1.5381     1.6551    70.7944
  464.2592   658.4366     1.5194     1.6489    70.7146
  464.4116   666.4539     1.5009     1.6403    70.6486
  464.5640   674.4727     1.4829     1.6240    70.6489
  464.7164   677.9982     1.4750     1.6016    70.7062
  464.8688   680.9993     1.4684     1.5850    70.8157
  465.0212   684.0002     1.4619     1.5827    70.8481
  465.1736   685.2051     1.4594     1.5874    70.8484
  465.3260   685.1920     1.4595     1.6047    70.8002
  465.4784   683.9391     1.4623     1.6235    70.7338
  465.6308   681.9150     1.4667     1.6359    70.6673
  465.7832   680.2119     1.4703     1.6463    70.5152
  465.9356   676.9415     1.4784     1.6464    70.3353
  466.0880   669.9399     1.4918     1.6471    70.1553
  466.2404   662.9384     1.5073     1.6460    70.1936
  466.3928   655.7386     1.5240     1.6488    70.4807
  466.5452   653.8584     1.5295     1.6619    70.6527
  466.6976   658.4833     1.5192     1.6775    70.6530
  466.8500   660.7140     1.5136     1.6936    70.6533
  467.0024   661.1761     1.5125     1.7048    70.6535
  467.1548   661.1628     1.5125     1.7034    70.6698
  467.3072   661.1494     1.5125     1.6889    70.7163
  467.4596   661.1361     1.5124     1.6751    70.7628
  467.6120   670.3490     1.4912     1.6665    70.8093
  467.7644   681.0363     1.4679     1.6620    70.8502
  467.9168   679.4818     1.4728     1.6627    70.7932
  468.0692   666.9851     1.5009     1.6701    70.7363
  468.2216   653.5515     1.5321     1.6856    70.6794
  468.3740   640.1152     1.5646     1.7100    70.6225
  468.5264   629.1672     1.5904     1.7392    70.5656
  468.6788   625.2175     1.5991     1.7693    70.5087
  468.8312   626.5870     1.5963     1.7923    70.4552
  468.9836   631.3896     1.5846     1.8016    70.4262
  469.1360   642.6167     1.5576     1.7878    70.3972
  469.2884   656.1360     1.5251     1.7667    70.3682
  469.4408   670.1769     1.4929     1.7366    70.3392
  469.5932   682.4037     1.4657     1.7018    70.3102
  469.7456   688.8827     1.4517     1.6807    70.2812
  469.8980   695.1281     1.4385     1.6773    70.3053
  470.0504   699.1354     1.4303     1.6922    70.4257
  470.2028   698.2389     1.4324     1.7133    70.5460
  470.3552   693.6953     1.4422     1.7252    70.6738
  470.5076   686.0273     1.4582     1.7190    70.9314
  470.6600   680.8405     1.4693     1.7025    71.1890
  470.8124   679.3906     1.4713     1.6822    71.1506
  470.9648   683.3976     1.4626     1.6709    71.0096
