~VERSION INFORMATION
VERS.                                                 2.0:   CWLS Log ASCII Standard-VERSION 2.0
WRAP.                                                  NO:   One line per depth step
~Well Information Block
STRT.M                                           359.8652:   Top Depth
STOP.M                                          1124.7608:   Bottom Depth
STEP.M                                             .15240:   Depth Increment
NULL.                                            -999.250:   Null Value
FLD .                                             WILDCAT:   Field Name
WELL.                                              16/2-1:   NAME
WBN .                                              16/2-1:   WELLBORE
NATI.                                                 NOR:   COUNTRY
BHT1.DEGF                                           100.0:   BH TEMP 1
BHT2.DEGF                                           165.0:   BH TEMP 2
BS1 .IN                                            12.250:   BIT SIZE 1
CTRY.                                                 NOR:   COUNTRY
CBD1.F                                             1192.0:   CSG 1 DRILL DEP
CBL1.F                                             1197.0:   CSG 1 LOG DEP
CS1 .IN                                           13.3750:   CSG 1 SIZE
COMP.                        ESSO EXPLORATION NORWAY INC.:   OPERATOR
PDAT.                                                 MSL:   PERM DATUM
PROV.                                  OFFSHORE NORTH SEA:   PROVINCE
COUN.                                      OCEAN TRAVELER:   RIG NAME
SPUD.                                          1967/07/11:   SPUD DATE
LATI.                                       58 53 35.40 N:   SURF. LATITUDE
LONG.                                        2 21 32.30 E:   SURF. LONGITUDE
BTD1.                                            3660.0 F:   TOTAL DEPTH 1
BTD2.                                            6267.0 F:   TOTAL DEPTH 2
PBWE.                                              16/2-1:   PB WELL ID
APIN.                                              16/2-1:   PB WELLBORE ID
PBWS.                                                 all:   PB WELL NAME SET
~PARAMETER INFORMATION (log)
LNAM.                                               IES-2:   NAME
LTYP.                                                 RAW:   LOG TYPE
LSRV.                                           INDUCTION:   LOG SERVICE
LSOU.                                             NPD/SPT:   LOG SOURCE
LVSN.                                                   1:   LOG VERSION
LRUN.                                                   2:   LOG RUN
BLI .F                                             3659.0:   BOTTOM DEPTH LOGGED
BHIS.                                                   R:   BRIEF HISTORY
R1  .                                OLD WELL NAME 16/2-1:   COMMENT  1
R2  .                                   LOGGED AS IEL-1-2:   COMMENT  2
R3  .                                 RUCKER DEVICE USED.:   COMMENT  3
DMF .                                                  RT:   DRILL MEAS FROM
EDF .F                                               85.0:   ELEV DRILL FLOOR
ENGI.                                              C.ROSS:   ENGINEER
TDD .F                                             3850.0:   FINAL TD DRILLER
TDL .F                                             3660.0:   FINAL TD LOGGER
DFL .                                                 4.0:   FLUID LOSS
FHIS.                                             RAW-LIS:   FULL HISTORY
EKB .F                                               85.0:   KB ELEVATION
LCNM.                                                SCHL:   LOGGING CONTRACTOR
LMF .                                                  RT:   LOGS MEAS FROM
DFD .                                        9.6000003815:   MUD DENSITY
DFPH.                                                10.0:   MUD PH
DFT .                                 W-SPERSENE XP-20 SW:   MUD TYPE
DFV .                                                45.0:   MUD VISCOSITY
RMS .OHMM                                    .31000000238:   RM
MSS .                                            FLOWLINE:   RM SOURCE
MST .DEGF                                            70.0:   RM TEMP
RMCS.OHMM                                    .77999997139:   RMC
MCST.DEGF                                            64.0:   RMC TEMP
RMFS.OHMM                                    .20999997854:   RMF
MMFS.                                              BAROID:   RMF SOURCE
MFST.DEGF                                            64.0:   RMF TEMP
TLAB.                                      1967/07/210900:   TIME LOGGER ON BOT
TCS .                                              9.0 HR:   TIME SINCE CIRCLN
TOOL.                                               IES-2:   TOOL STRING
TLI .F                                             1197.0:   TOP DEPTH LOGGED
WITN.                                             J.VOGEL:   WITNESS
~Curve Information Block
#MNEM.UNIT                                        API CODE    No Description
#=========                                        ========    == ===========
DEPT.M                                       00 001 00 00:     1  DEPTH
CILD.                                                    :     2  Deep induction conductivity
ILD.OHMM                                                 :     3  Deep induction resistivity
SN.OHMM                                                  :     4  Medium Resistivity
SP.MV                                                    :     5  Spontaneous potential
~ASCII
# ...
  893.8748   755.4153     1.3844     1.7414    70.5659
  894.0272   744.2815     1.3831     1.7454    70.6046
  894.1796   732.2900     1.4008     1.7545    70.6425
  894.3320   720.2971     1.4168     1.7585    70.6778
  894.4844   708.3033     1.4327     1.7549    70.7131
  894.6368   696.3096     1.4486     1.7670    70.7484
  894.7892   688.0581     1.4645     1.7860    70.7836
  894.9416   679.8066     1.4769     1.7996    70.8189
  895.0940   673.0425     1.4892     1.8070    70.7544
  895.2464   669.0404     1.5016     1.8208    70.6211
  895.3988   665.4034     1.5140     1.8399    70.4879
  895.5512   662.4022     1.5264     1.8567    70.3546
  895.7036   658.5867     1.5394     1.8573    70.2444
  895.8560   653.4396     1.5523     1.8491    70.2944
  896.0084   648.6974     1.5652     1.8372    70.3443
  896.1608   649.9086     1.5781     1.8294    70.3943
  896.3132   651.2073     1.5910     1.8275    70.4418
  896.4656   652.6307     1.6020     1.8315    70.4761
  896.6180   654.0543     1.5953     1.8408    70.5104
  896.7704   655.5923     1.5887     1.8451    70.5446
  896.9228   657.2051     1.5820     1.8317    70.5789
  897.0752   659.1232     1.5754     1.8198    70.6132
  897.2276   663.1473     1.5687     1.8021    70.6686
  897.3800   671.7396     1.5584     1.7785    70.7609
  897.5324   682.8885     1.5270     1.7507    70.8333
  897.6848   691.1591     1.4955     1.7407    70.8333
  897.8372   696.5129     1.4639     1.7348    70.8333
  897.9896   700.9044     1.4266     1.7259    70.7652
  898.1420   704.9053     1.4185     1.7151    70.6453
  898.2944   707.3225     1.4137     1.7103    70.7345
  898.4468   709.7396     1.4087     1.7058    70.8263
  898.5992   713.7615     1.4223     1.7047    70.7513
  898.7516   718.4048     1.4166     1.6973    70.6763
  898.9040   723.1555     1.4109     1.6780    70.6051
  899.0564   727.9858     1.4051     1.6612    70.5385
  899.2088   738.4014     1.3831     1.6509    70.4718
  899.3612   749.3868     1.3591     1.6536    70.5041
  899.5136   760.6636     1.3352     1.6577    70.6480
  899.6660   771.9447     1.3207     1.6410    70.7919
  899.8184   778.0381     1.3127     1.6194    70.9358
  899.9708   782.5245     1.3056     1.5998    71.0317
  900.1232   785.1149     1.3056     1.5874    71.0317
  900.2756   787.7051     1.3055     1.5836    71.0317
  900.4280   786.8564     1.3055     1.5875    71.0360
  900.5804   783.6438     1.3097     1.5960    71.2072
  900.7328   776.6250     1.3233     1.6037    71.1740
  900.8852   769.0222     1.3370     1.6111    71.1091
  901.0376   763.0168     1.3507     1.6179    71.0443
  901.1900   757.0114     1.3643     1.6178    70.9794
  901.3424   752.4310     1.3780     1.6187    70.9146
  901.4948   750.3607     1.3769     1.6265    70.8498
  901.6472   750.3682     1.3638     1.6365    70.7944
  901.7996   754.0262     1.3588     1.6359    70.7422
  901.9520   756.9075     1.3538     1.6285    70.6901
  902.1044   760.3428     1.3488     1.6222    70.6379
  902.2568   758.7402     1.3427     1.6150    70.5811
  902.4092   759.5050     1.3327     1.6076    70.5240
  902.5616   763.2751     1.3228     1.5960    70.4669
  902.7140   769.9941     1.3128     1.5888    70.4365
  902.8664   781.4366     1.2850     1.5893    70.4365
  903.0188   792.1766     1.2789     1.5897    70.4365
  903.1712   796.7407     1.2727     1.5849    70.4365
  903.3236   798.2244     1.2666     1.5707    70.4365
  903.4760   798.3579     1.2604     1.5527    70.4753
  903.6284   804.3964     1.2543     1.5373    70.5895
  903.7808   813.5396     1.2481     1.5278    70.7037
  903.9332   824.0105     1.2459     1.5259    70.8179
  904.0856   831.4222     1.2459     1.5231    70.7882
  904.2380   828.4207     1.2459     1.5185    70.7361
  904.3904   821.3425     1.2459     1.5123    70.6839
  904.5428   816.1998     1.2459     1.5108    70.6317
  904.6952   812.9506     1.2458     1.5097    70.5796
  904.8476   812.2393     1.2458     1.5159    70.5274
  905.0000   808.6149     1.2458     1.5235    70.4753
  905.1524   804.0222     1.2892     1.5330    70.4473
  905.3048   795.6221     1.2998     1.5425    70.4894
  905.4572   784.8153     1.3103     1.5514    70.5314
  905.6096   777.4661     1.3208     1.5617    70.5735
  905.7620   770.2551     1.3314     1.5721    70.6156
  905.9144   763.0442     1.3419     1.5841    70.6577
  906.0668   758.4463     1.3385     1.5980    70.6998
  906.2192   755.2434     1.3302     1.6102    70.7419
  906.3716   753.1073     1.3220     1.6188    70.7840
  906.5240   756.1288     1.3137     1.6200    70.8260
  906.6764   762.4504     1.3055     1.6186    70.7307
  906.8288   769.3535     1.3125     1.6075    70.6066
  906.9812   773.8336     1.3205     1.5963    70.4825
  907.1336   776.2518     1.3247     1.5874    70.3584
  907.2860   775.4592     1.3247     1.5780    70.2391
  907.4384   776.3503     1.3247     1.5756    70.2724
  907.5908   784.0359     1.3091     1.5755    70.3057
  907.7432   791.2258     1.2852     1.5838    70.3391
  907.8956   797.7306     1.2613     1.5918    70.3724
  908.0480   804.6603     1.2426     1.5851    70.4057
  908.2004   812.7137     1.2302     1.5623    70.4444
  908.3528   822.2786     1.2156     1.5380    70.5502
  908.5052   835.4669     1.1962     1.5166    70.6561
  908.6576   848.5730     1.1776     1.4973    70.7619
  908.8100   861.5906     1.1597     1.4827    70.8677
  908.9624   872.6558     1.1454     1.4746    70.9735
  909.1148   879.9041     1.1359     1.4704    71.0317
  909.2672   886.3184     1.1277     1.4617    71.0317
  909.4196   890.1456     1.1234     1.4470    71.0317
  909.5720   890.4250     1.1231     1.4353    71.0317
  909.7244   896.4657     1.1160     1.4301    71.0317
  909.8768   902.1096     1.1089     1.4293    71.0317
  910.0292   907.1436     1.1027     1.4281    71.0317
  910.1816   910.1047     1.0988     1.4218    71.0049
  910.3340   910.1138     1.0988     1.4157    70.9249
  910.4864   910.1228     1.0988     1.4135    70.8449
  910.6388   906.9198     1.1025     1.4168    70.7650
  910.7912   903.4879     1.1068     1.4215    70.6850
  910.9436   899.9501     1.1111     1.4243    70.6050
  911.0960   896.3467     1.1156     1.4228    70.5251
  911.2484   899.5479     1.1116     1.4199    70.4451
  911.4008   903.7623     1.1064     1.4166    70.5129
  911.5532   908.1577     1.1012     1.4166    70.5986
  911.7056   904.7921     1.1055     1.4192    70.6843
  911.8580   897.5411     1.1144     1.4192    70.7699
  912.0104   894.2798     1.1182     1.4192    70.8556
  912.1628   894.2887     1.1184     1.4228    70.9413
  912.3152   889.6987     1.1246     1.4297    71.0269
  912.4676   879.9204     1.1375     1.4345    70.9509
  912.6200   868.7395     1.1519     1.4392    70.8652
  912.7724   861.1564     1.1606     1.4440    70.7795
  912.9248   857.7386     1.1657     1.4488    70.6938
  913.0772   856.5629     1.1674     1.4535    70.6082
  913.2296   857.5760     1.1662     1.4592    70.5225
  913.3820   858.5059     1.1649     1.4642    70.4368
  913.5344   858.5144     1.1648     1.4626    70.4368
  913.6868   858.5229     1.1648     1.4603    70.4371
  913.8392   866.7896     1.1541     1.4561    70.4374
  913.9916   876.7668     1.1408     1.4537    70.4377
  914.1440   884.8217     1.1303     1.4488    70.4380
  914.2964   892.8763     1.1201     1.4411    70.4383
  914.4488   899.2859     1.1120     1.4321    70.4386
  914.6012   904.5178     1.1055     1.4225    70.4436
  914.7536   905.5756     1.1042     1.4188    70.4654
  914.9060   905.8822     1.1039     1.4215    70.4871
  915.0584   904.7469     1.1053     1.4231    70.5089
  915.2108   901.7506     1.1092     1.4233    70.5306
  915.3632   897.0763     1.1150     1.4241    70.5524
  915.5156   890.4578     1.1237     1.4268    70.5741
  915.6680   880.6299     1.1364     1.4322    70.5958
  915.8204   870.8019     1.1493     1.4490    70.6176
  915.9728   861.9526     1.1595     1.4618    70.6393
