~VERSION INFORMATION
VERS.                                                 2.0:   CWLS Log ASCII Standard-VERSION 2.0
WRAP.                                                  NO:   One line per depth step
~Well Information Block
STRT.M                                           359.8652:   Top Depth
STOP.M                                          1124.7608:   Bottom Depth
STEP.M                                             .15240:   Depth Increment
NULL.                                            -999.250:   Null Value
FLD .                                             WILDCAT:   Field Name
WELL.                                              16/2-1:   NAME
WBN .                                              16/2-1:   WELLBORE
NATI.                                                 NOR:   COUNTRY
BHT1.DEGF                                           100.0:   BH TEMP 1
BHT2.DEGF                                           165.0:   BH TEMP 2
BS1 .IN                                            12.250:   BIT SIZE 1
CTRY.                                                 NOR:   COUNTRY
CBD1.F                                             1192.0:   CSG 1 DRILL DEP
CBL1.F                                             1197.0:   CSG 1 LOG DEP
CS1 .IN                                           13.3750:   CSG 1 SIZE
COMP.                        ESSO EXPLORATION NORWAY INC.:   OPERATOR
PDAT.                                                 MSL:   PERM DATUM
PROV.                                  OFFSHORE NORTH SEA:   PROVINCE
COUN.                                      OCEAN TRAVELER:   RIG NAME
SPUD.                                          1967/07/11:   SPUD DATE
LATI.                                       58 53 35.40 N:   SURF. LATITUDE
LONG.                                        2 21 32.30 E:   SURF. LONGITUDE
BTD1.                                            3660.0 F:   TOTAL DEPTH 1
BTD2.                                            6267.0 F:   TOTAL DEPTH 2
PBWE.                                              16/2-1:   PB WELL ID
APIN.                                              16/2-1:   PB WELLBORE ID
PBWS.                                                 all:   PB WELL NAME SET
~PARAMETER INFORMATION (log)
LNAM.                                               IES-2:   NAME
LTYP.                                                 RAW:   LOG TYPE
LSRV.                                           INDUCTION:   LOG SERVICE
LSOU.                                             NPD/SPT:   LOG SOURCE
LVSN.                                                   1:   LOG VERSION
LRUN.                                                   2:   LOG RUN
BLI .F                                             3659.0:   BOTTOM DEPTH LOGGED
BHIS.                                                   R:   BRIEF HISTORY
R1  .                                OLD WELL NAME 16/2-1:   COMMENT  1
R2  .                                   LOGGED AS IEL-1-2:   COMMENT  2
R3  .                                 RUCKER DEVICE USED.:   COMMENT  3
DMF .                                                  RT:   DRILL MEAS FROM
EDF .F                                               85.0:   ELEV DRILL FLOOR
ENGI.                                              C.ROSS:   ENGINEER
TDD .F                                             3850.0:   FINAL TD DRILLER
TDL .F                                             3660.0:   FINAL TD LOGGER
DFL .                                                 4.0:   FLUID LOSS
FHIS.                                             RAW-LIS:   FULL HISTORY
EKB .F                                               85.0:   KB ELEVATION
LCNM.                                                SCHL:   LOGGING CONTRACTOR
LMF .                                                  RT:   LOGS MEAS FROM
DFD .                                        9.6000003815:   MUD DENSITY
DFPH.                                                10.0:   MUD PH
DFT .                                 W-SPERSENE XP-20 SW:   MUD TYPE
DFV .                                                45.0:   MUD VISCOSITY
RMS .OHMM                                    .31000000238:   RM
MSS .                                            FLOWLINE:   RM SOURCE
MST .DEGF                                            70.0:   RM TEMP
RMCS.OHMM                                    .77999997139:   RMC
MCST.DEGF                                            64.0:   RMC TEMP
RMFS.OHMM                                    .20999997854:   RMF
MMFS.                                              BAROID:   RMF SOURCE
MFST.DEGF                                            64.0:   RMF TEMP
TLAB.                                      1967/07/210900:   TIME LOGGER ON BOT
TCS .                                              9.0 HR:   TIME SINCE CIRCLN
TOOL.                                               IES-2:   TOOL STRING
TLI .F                                             1197.0:   TOP DEPTH LOGGED
WITN.                                             J.VOGEL:   WITNESS
~Curve Information Block
#MNEM.UNIT                                        API CODE    No Description
#=========                                        ========    == ===========
DEPT.M                                       00 001 00 00:     1  DEPTH
CILD.                                                    :     2  Deep induction conductivity
ILD.OHMM                                                 :     3  Deep induction resistivity
SN.OHMM                                                  :     4  Medium Resistivity
SP.MV                                                    :     5  Spontaneous potential
~ASCII
# ...
  404.3660   600.3718     1.7423     1.8115    71.5376
  404.5184   601.2148     1.7359     1.8096    71.5377
  404.6708   609.1748     1.7269     1.8051    71.4842
  404.8232   623.5034     1.6999     1.7926    71.4307
  404.9756   639.1082     1.6729     1.7739    71.3772
  405.1280   646.8022     1.6459     1.7443    71.3446
  405.2804   655.1947     1.5998     1.7048    71.3455
  405.4328   667.1959     1.5336     1.6714    71.1211
  405.5852   688.1750     1.4674     1.6415    70.7667
  405.7376   713.2671     1.4191     1.6294    70.9389
  405.8900   727.8884     1.3878     1.6235    71.0638
  406.0424   740.8846     1.3565     1.6166    71.1863
  406.1948   748.9302     1.3347     1.6015    71.3134
  406.3472   756.3083     1.3215     1.5826    71.4406
  406.4996   764.3635     1.3074     1.5674    71.5277
  406.6520   772.6665     1.2936     1.5586    71.3443
  406.8044   770.8600     1.2987     1.5529    71.1609
  406.9568   758.1927     1.3175     1.5462    70.9233
  407.1092   737.3146     1.3534     1.5479    70.6846
  407.2616   716.4321     1.4200     1.5605    70.7169
  407.4140   702.1011     1.4468     1.5825    71.0175
  407.5664   692.5723     1.4736     1.6249    71.3180
  407.7188   684.9285     1.5003     1.6580    71.3614
  407.8712   679.4451     1.5271     1.6720    71.3624
  408.0236   674.9611     1.5433     1.6683    71.3634
  408.1760   673.5537     1.5535     1.6548    71.4721
  408.3284   676.2086     1.5425     1.6308    71.6229
  408.4808   684.5190     1.5203     1.6084    71.7517
  408.6332   692.3391     1.4982     1.5987    71.6117
  408.7856   692.7744     1.4924     1.5916    71.4717
  408.9380   681.4731     1.4866     1.5879    71.3693
  409.0904   673.4380     1.4808     1.5849    71.3703
  409.2428   668.3110     1.4857     1.5803    71.3713
  409.3952   664.2496     1.4951     1.5713    71.3437
  409.5476   659.7241     1.5198     1.5617    71.1199
  409.7000   653.5177     1.5568     1.5517    70.8962
  409.8524   638.8748     1.6058     1.5467    70.7812
  410.0048   614.7666     1.6724     1.5450    70.7822
  410.1572   582.9819     1.7634     1.5422    70.7845
  410.3096   575.1395     1.7995     1.5355    71.0423
  410.4620   650.0757     1.5351     1.5118    71.3001
  410.6144   833.0599     1.2161     1.4726    71.3802
  410.7668  1016.6772      .9913     1.4159    71.3812
  410.9192  1777.4014      .5762     1.3388    71.3822
  411.0716  2116.7476      .4735     1.2382    71.3591
  411.2240  2223.6587      .4500     1.0995    71.3329
  411.3764  2270.0073      .4406      .9528    71.3066
  411.5288  2343.6050      .4267      .8709    71.2804
  411.6812  2443.1216      .4092      .8622    71.2541
  411.8336  2443.2388      .4104      .8836    71.2279
  411.9860  2072.7236      .4836      .9156    71.2016
  412.1384  1693.2637      .5968      .9649    71.1253
  412.2908  1288.0691      .7886     1.0435    71.0174
  412.4432   969.9335     1.0562     1.1633    70.9094
  412.5956   698.5518     1.4101     1.3237    70.8015
  412.7480   610.2769     1.6903     1.4623    70.8000
  412.9004   577.8911     1.8250     1.5617    70.8010
  413.0528   556.8330     1.8953     1.6096    70.8020
  413.2052   562.4767     1.9326     1.6190    70.8416
  413.3576   574.4677     1.8630     1.6191    70.8887
  413.5100   582.8788     1.7997     1.6233    70.9358
  413.6624   586.6711     1.7879     1.6376    70.9829
  413.8148   587.6344     1.7762     1.6499    71.0771
  413.9672   599.6412     1.7644     1.6519    71.2113
  414.1196   618.6841     1.6811     1.6482    71.3454
  414.2720   642.6505     1.5802     1.6435    71.4274
  414.4244   664.1792     1.5169     1.6386    71.4698
  414.5768   679.1034     1.4736     1.6314    71.5121
  414.7292   685.0923     1.4596     1.6248    71.5544
  414.8816   685.8282     1.4582     1.6181    71.5967
  415.0340   682.5763     1.4653     1.6110    71.5522
  415.1864   681.2660     1.4676     1.6050    71.4827
  415.3388   684.8530     1.4598     1.6071    71.4132
  415.4912   689.5868     1.4496     1.6097    71.3437
  415.6436   694.7167     1.4388     1.6112    71.2742
  415.7960   699.9794     1.4279     1.6115    71.1993
  415.9484   705.4214     1.4165     1.5998    71.0961
  416.1008   715.5162     1.3992     1.5841    70.9929
  416.2532   728.5890     1.3744     1.5659    70.8897
  416.4056   740.7998     1.3514     1.5541    70.8238
  416.5580   752.7806     1.3297     1.5485    70.8248
  416.7104   764.0231     1.3098     1.5430    70.8257
  416.8628   773.6074     1.2933     1.5300    70.8743
  417.0152   776.9219     1.2871     1.5169    71.0933
  417.1676   770.1409     1.2981     1.5052    71.2247
  417.3200   762.9257     1.3106     1.5124    71.2257
  417.4724   759.1697     1.3172     1.5238    71.2267
  417.6248   755.0946     1.3243     1.5340    71.2277
  417.7772   745.2379     1.3420     1.5457    71.2287
  417.9296   734.8051     1.3613     1.5600    71.2297
  418.0820   723.4260     1.3829     1.5738    71.2307
  418.2344   712.0470     1.4052     1.5841    71.2317
  418.3868   703.1196     1.4227     1.5927    71.1876
  418.5392   697.7600     1.4337     1.6002    71.0927
  418.6916   692.4015     1.4449     1.6089    70.9978
  418.8440   686.4030     1.4578     1.6186    70.9030
  418.9964   679.5729     1.4726     1.6239    70.8144
  419.1488   672.7428     1.4855     1.6305    70.7381
  419.3012   665.9127     1.5006     1.6370    70.6617
  419.4536   659.0826     1.5162     1.6466    70.5854
  419.6060   654.8109     1.5269     1.6570    70.5091
  419.7584   653.9746     1.5291     1.6654    70.4554
  419.9108   656.7295     1.5230     1.6707    70.4836
  420.0632   659.5194     1.5165     1.6738    70.5119
  420.2156   665.5048     1.5030     1.6716    70.5401
  420.3680   671.4901     1.4895     1.6629    70.5683
  420.5204   676.3802     1.4785     1.6474    70.5965
  420.6728   679.3647     1.4720     1.6332    70.6248
  420.8252   681.5581     1.4672     1.6214    70.6530
  420.9776   682.4652     1.4652     1.6270    70.6946
  421.1300   682.0388     1.4664     1.6372    70.7369
  421.2824   677.2144     1.4770     1.6456    70.7792
  421.4348   671.5066     1.4898     1.6578    70.8215
  421.5872   665.1638     1.5041     1.6664    70.8486
  421.7396   658.8198     1.5187     1.6748    70.7925
  421.8920   654.0552     1.5293     1.6831    70.7364
  422.0444   651.2657     1.5360     1.6891    70.6804
  422.1968   648.6512     1.5413     1.6984    70.6243
  422.3492   646.4504     1.5465     1.7091    70.5682
  422.5016   644.2496     1.5519     1.7149    70.5121
  422.6540   642.0492     1.5572     1.7183    70.4561
  422.8064   640.5001     1.5611     1.7228    70.4000
  422.9588   639.2826     1.5641     1.7277    70.3439
  423.1112   638.0651     1.5671     1.7325    70.2878
  423.2636   636.8866     1.5701     1.7377    70.2977
  423.4160   635.7781     1.5728     1.7459    70.3303
  423.5684   635.9836     1.5724     1.7496    70.3628
  423.7208   637.3912     1.5689     1.7483    70.3953
  423.8732   640.3761     1.5615     1.7439    70.4278
  424.0256   643.1505     1.5548     1.7399    70.4604
  424.1780   643.1343     1.5549     1.7457    70.5544
  424.3304   639.6129     1.5640     1.7493    70.7188
  424.4828   631.6067     1.5842     1.7579    70.8833
  424.6352   622.4116     1.6076     1.7681    71.0477
  424.7876   614.6655     1.6281     1.7840    71.0264
  424.9400   606.9194     1.6488     1.8004    70.9675
  425.0924   600.9797     1.6651     1.8244    70.9086
  425.2448   595.5004     1.6783     1.8479    70.8220
  425.3972   586.5325     1.7030     1.8625    70.7106
  425.5496   577.4993     1.7298     1.8713    70.5993
  425.7020   568.8937     1.7563     1.8684    70.4880
  425.8544   560.2882     1.7834     1.8614    70.3766
  426.0068   554.8494     1.8018     1.8591    70.2921
  426.1592   554.4515     1.8038     1.8579    70.2931
  426.3116   559.1542     1.7889     1.8691    70.2941
  426.4640   566.5181     1.7656     1.8828    70.2950
