~VERSION INFORMATION
VERS.                                                 2.0:   CWLS Log ASCII Standard-VERSION 2.0
WRAP.                                                  NO:   One line per depth step
~Well Information Block
STRT.M                                           359.8652:   Top Depth
STOP.M                                          1124.7608:   Bottom Depth
STEP.M                                             .15240:   Depth Increment
NULL.                                            -999.250:   Null Value
FLD .                                             WILDCAT:   Field Name
WELL.                                              16/2-1:   NAME
WBN .                                              16/2-1:   WELLBORE
NATI.                                                 NOR:   COUNTRY
BHT1.DEGF                                           100.0:   BH TEMP 1
BHT2.DEGF                                           165.0:   BH TEMP 2
BS1 .IN                                            12.250:   BIT SIZE 1
CTRY.                                                 NOR:   COUNTRY
CBD1.F                                             1192.0:   CSG 1 DRILL DEP
CBL1.F                                             1197.0:   CSG 1 LOG DEP
CS1 .IN                                           13.3750:   CSG 1 SIZE
COMP.                        ESSO EXPLORATION NORWAY INC.:   OPERATOR
PDAT.                                                 MSL:   PERM DATUM
PROV.                                  OFFSHORE NORTH SEA:   PROVINCE
COUN.                                      OCEAN TRAVELER:   RIG NAME
SPUD.                                          1967/07/11:   SPUD DATE
LATI.                                       58 53 35.40 N:   SURF. LATITUDE
LONG.                                        2 21 32.30 E:   SURF. LONGITUDE
BTD1.                                            3660.0 F:   TOTAL DEPTH 1
BTD2.                                            6267.0 F:   TOTAL DEPTH 2
PBWE.                                              16/2-1:   PB WELL ID
APIN.                                              16/2-1:   PB WELLBORE ID
PBWS.                                                 all:   PB WELL NAME SET
~PARAMETER INFORMATION (log)
LNAM.                                               IES-2:   NAME
LTYP.                                                 RAW:   LOG TYPE
LSRV.                                           INDUCTION:   LOG SERVICE
LSOU.                                             NPD/SPT:   LOG SOURCE
LVSN.                                                   1:   LOG VERSION
LRUN.                                                   2:   LOG RUN
BLI .F                                             3659.0:   BOTTOM DEPTH LOGGED
BHIS.                                                   R:   BRIEF HISTORY
R1  .                                OLD WELL NAME 16/2-1:   COMMENT  1
R2  .                                   LOGGED AS IEL-1-2:   COMMENT  2
R3  .                                 RUCKER DEVICE USED.:   COMMENT  3
DMF .                                                  RT:   DRILL MEAS FROM
EDF .F                                               85.0:   ELEV DRILL FLOOR
ENGI.                                              C.ROSS:   ENGINEER
TDD .F                                             3850.0:   FINAL TD DRILLER
TDL .F                                             3660.0:   FINAL TD LOGGER
DFL .                                                 4.0:   FLUID LOSS
FHIS.                                             RAW-LIS:   FULL HISTORY
EKB .F                                               85.0:   KB ELEVATION
LCNM.                                                SCHL:   LOGGING CONTRACTOR
LMF .                                                  RT:   LOGS MEAS FROM
DFD .                                        9.6000003815:   MUD DENSITY
DFPH.                                                10.0:   MUD PH
DFT .                                 W-SPERSENE XP-20 SW:   MUD TYPE
DFV .                                                45.0:   MUD VISCOSITY
RMS .OHMM                                    .31000000238:   RM
MSS .                                            FLOWLINE:   RM SOURCE
MST .DEGF                                            70.0:   RM TEMP
RMCS.OHMM                                    .77999997139:   RMC
MCST.DEGF                                            64.0:   RMC TEMP
RMFS.OHMM                                    .20999997854:   RMF
MMFS.                                              BAROID:   RMF SOURCE
MFST.DEGF                                            64.0:   RMF TEMP
TLAB.                                      1967/07/210900:   TIME LOGGER ON BOT
TCS .                                              9.0 HR:   TIME SINCE CIRCLN
TOOL.                                               IES-2:   TOOL STRING
TLI .F                                             1197.0:   TOP DEPTH LOGGED
WITN.                                             J.VOGEL:   WITNESS
~Curve Information Block
#MNEM.UNIT                                        API CODE    No Description
#=========                                        ========    == ===========
DEPT.M                                       00 001 00 00:     1  DEPTH
CILD.                                                    :     2  Deep induction conductivity
ILD.OHMM                                                 :     3  Deep induction resistivity
SN.OHMM                                                  :     4  Medium Resistivity
SP.MV                                                    :     5  Spontaneous potential
~ASCII
# ...
  604.6196   746.1451     1.3402     1.5452    70.9974
  604.7720   746.7097     1.3391     1.5465    70.8570
  604.9244   747.2743     1.3382     1.5444    70.7165
  605.0768   747.3108     1.3381     1.5480    70.6051
  605.2292   747.3008     1.3382     1.5509    70.6061
  605.3816   747.2908     1.3382     1.5477    70.6071
  605.5340   748.3434     1.3365     1.5367    70.6081
  605.6864   750.0564     1.3334     1.5322    70.6091
  605.8388   751.0293     1.3315     1.5322    70.6101
  605.9912   750.3094     1.3327     1.5322    70.5582
  606.1436   749.5897     1.3340     1.5293    70.5020
  606.2960   747.7220     1.3373     1.5225    70.4457
  606.4484   744.6945     1.3428     1.5211    70.4328
  606.6008   741.9790     1.3478     1.5258    70.4714
  606.7532   739.5553     1.3522     1.5313    70.5100
  606.9056   737.0260     1.3570     1.5323    70.5485
  607.0580   732.0448     1.3663     1.5326    70.5871
  607.2104   727.0636     1.3758     1.5360    70.6190
  607.3628   722.5439     1.3843     1.5450    70.6200
  607.5152   719.5164     1.3902     1.5560    70.6210
  607.6676   716.6432     1.3957     1.5609    70.6220
  607.8200   714.2201     1.4005     1.5615    70.6230
  607.9724   711.4310     1.4053     1.5649    70.6240
  608.1248   710.0260     1.4084     1.5747    70.6250
  608.2772   712.6960     1.4034     1.5785    70.6260
  608.4296   717.6005     1.3941     1.5726    70.7183
  608.5820   723.0698     1.3834     1.5682    70.9379
  608.7344   729.0764     1.3720     1.5690    70.8283
  608.8868   735.0939     1.3606     1.5716    70.5015
  609.0392   738.0688     1.3549     1.5710    70.3800
  609.1916   732.9427     1.3643     1.5667    70.3142
  609.3440   722.4126     1.3844     1.5678    70.2484
  609.4964   708.2916     1.4123     1.5794    70.2965
  609.6488   693.0536     1.4439     1.6135    70.3703
  609.8012   673.7555     1.4857     1.6520    70.4441
  609.9536   654.4496     1.5300     1.7004    70.5179
  610.1060   635.1438     1.5771     1.7427    70.5918
  610.2584   615.8379     1.6258     1.7726    70.6389
  610.4108   607.4480     1.6471     1.7983    70.6399
  610.5632   604.2113     1.6547     1.8028    70.6409
  610.7156   602.1787     1.6603     1.8109    70.6419
  610.8680   604.8654     1.6542     1.8112    70.6429
  611.0204   610.3641     1.6391     1.7972    70.6438
  611.1728   616.7275     1.6222     1.7851    70.6448
  611.3252   623.0911     1.6054     1.7766    70.6200
  611.4776   630.5803     1.5863     1.7793    70.5609
  611.6300   640.2048     1.5623     1.7805    70.5018
  611.7824   645.4258     1.5494     1.7692    70.4428
  611.9348   648.6964     1.5415     1.7573    70.3837
  612.0872   649.0836     1.5406     1.7501    70.3246
  612.2396   649.2749     1.5400     1.7457    70.2655
  612.3920   652.7020     1.5318     1.7431    70.2736
  612.5444   656.1293     1.5238     1.7386    70.2961
  612.6968   657.7947     1.5201     1.7340    70.3185
  612.8492   658.8721     1.5177     1.7312    70.3410
  613.0016   658.9242     1.5176     1.7288    70.3634
  613.1540   658.9043     1.5177     1.7277    70.3858
  613.3064   661.2654     1.5128     1.7277    70.4083
  613.4588   666.8018     1.5008     1.7273    70.4307
  613.6112   675.2152     1.4820     1.7195    70.4532
  613.7636   682.4457     1.4660     1.7028    70.4476
  613.9160   689.4073     1.4510     1.6891    70.4213
  614.0684   696.3691     1.4364     1.6754    70.3950
  614.2208   700.4204     1.4278     1.6676    70.3687
  614.3732   703.0819     1.4223     1.6623    70.3423
  614.5256   705.7434     1.4169     1.6609    70.3160
  614.6780   706.5139     1.4154     1.6629    70.2897
  614.8304   706.4940     1.4154     1.6637    70.2409
  614.9828   706.4741     1.4155     1.6627    70.1418
  615.1352   706.4541     1.4153     1.6610    70.0426
  615.2876   709.1788     1.4097     1.6570    69.9435
  615.4400   712.1754     1.4035     1.6511    69.8790
  615.5924   717.1696     1.3936     1.6438    69.8800
  615.7448   722.3193     1.3850     1.6365    69.8810
  615.8972   726.4075     1.3771     1.6283    69.8819
  616.0496   729.8346     1.3706     1.6190    69.8875
  616.2020   732.7366     1.3650     1.6060    69.9775
  616.3544   734.4408     1.3617     1.5956    70.0675
  616.5068   736.1450     1.3585     1.5907    70.1574
  616.6592   737.9348     1.3552     1.5825    70.2474
  616.8116   739.7252     1.3519     1.5845    70.4140
  616.9640   741.5156     1.3486     1.5860    70.6335
  617.1164   744.4399     1.3432     1.5841    70.5671
  617.2688   747.8671     1.3370     1.5817    70.4179
  617.4212   750.2223     1.3329     1.5751    70.2942
  617.5736   750.8374     1.3318     1.5697    70.3366
  617.7260   751.4529     1.3307     1.5633    70.3790
  617.8784   751.9124     1.3299     1.5558    70.4214
  618.0308   751.8923     1.3300     1.5546    70.4639
  618.1832   751.8724     1.3300     1.5619    70.4762
  618.3356   752.4117     1.3292     1.5660    70.4310
  618.4880   753.6624     1.3270     1.5667    70.3858
  618.6404   754.9130     1.3248     1.5667    70.3405
  618.7928   755.5835     1.3235     1.5666    70.2976
  618.9452   754.9281     1.3246     1.5627    70.2986
  619.0976   754.2728     1.3258     1.5579    70.2996
  619.2500   753.6174     1.3269     1.5574    70.3006
  619.4024   752.9620     1.3281     1.5641    70.3016
  619.5548   752.3068     1.3292     1.5669    70.3026
  619.7072   751.5940     1.3305     1.5676    70.3036
  619.8596   749.2739     1.3347     1.5720    70.3046
  620.0120   746.9539     1.3389     1.5811    70.3055
  620.1644   744.6338     1.3431     1.5879    70.3368
  620.3168   740.7544     1.3504     1.5910    70.3694
  620.4692   735.7000     1.3600     1.5980    70.4020
  620.6216   724.2219     1.3829     1.6101    70.4346
  620.7740   708.3151     1.4137     1.6239    70.4672
  620.9264   692.4083     1.4417     1.6433    70.4998
  621.0788   673.9045     1.4812     1.6725    70.4365
  621.2312   655.2891     1.5236     1.7066    70.3283
  621.3836   636.6809     1.5685     1.7454    70.2201
  621.5360   618.0654     1.6162     1.7902    70.1118
  621.6884   602.5133     1.6588     1.8242    70.0036
  621.8408   592.6002     1.6870     1.8393    69.9317
  621.9932   586.7244     1.7043     1.8419    69.9808
  622.1456   591.7626     1.6898     1.8394    70.0298
  622.2980   600.9418     1.6637     1.8279    70.0789
  622.4504   611.3424     1.6345     1.8023    70.1279
  622.6028   631.9478     1.5808     1.7800    70.1770
  622.7552   652.5530     1.5303     1.7555    70.2260
  622.9076   675.7368     1.4772     1.7259    70.2751
  623.0600   699.7668     1.4261     1.6824    70.3241
  623.2124   723.7969     1.3792     1.6367    70.1887
  623.3648   741.4995     1.3468     1.5970    70.0484
  623.5172   758.7821     1.3203     1.5705    69.9813
  623.6696   772.5665     1.2956     1.5588    70.2827
  623.8220   775.9636     1.2889     1.5593    70.5118
  623.9744   766.6072     1.3036     1.5652    70.4203
  624.1268   749.6398     1.3328     1.5724    70.3323
  624.2792   730.2050     1.3684     1.5909    70.3333
  624.4316   708.2850     1.4111     1.6228    70.3343
  624.5840   686.3651     1.4566     1.6582    70.3353
  624.7364   664.4451     1.5051     1.6973    70.3363
  624.8888   644.2607     1.5526     1.7327    70.3373
  625.0412   630.1213     1.5878     1.7584    70.3383
  625.1936   617.9838     1.6185     1.7745    70.1429
  625.3460   617.2516     1.6186     1.7759    69.9319
  625.4984   631.0133     1.5830     1.7590    69.7460
  625.6508   644.5427     1.5480     1.7284    69.7470
  625.8032   668.9974     1.4908     1.6917    69.7480
  625.9556   693.9850     1.4380     1.6534    69.8864
  626.1080   718.0139     1.3963     1.6207    70.0287
  626.2604   740.6552     1.3528     1.6037    70.1686
  626.4128   754.1846     1.3273     1.5922    70.2961
  626.5652   754.7986     1.3247     1.5872    70.4235
  626.7176   745.1895     1.3413     1.5844    70.5434
