~VERSION INFORMATION
VERS.                                                 2.0:   CWLS Log ASCII Standard-VERSION 2.0
WRAP.                                                  NO:   One line per depth step
~Well Information Block
STRT.M                                           359.8652:   Top Depth
STOP.M                                          1124.7608:   Bottom Depth
STEP.M                                             .15240:   Depth Increment
NULL.                                            -999.250:   Null Value
FLD .                                             WILDCAT:   Field Name
WELL.                                              16/2-1:   NAME
WBN .                                              16/2-1:   WELLBORE
NATI.                                                 NOR:   COUNTRY
BHT1.DEGF                                           100.0:   BH TEMP 1
BHT2.DEGF                                           165.0:   BH TEMP 2
BS1 .IN                                            12.250:   BIT SIZE 1
CTRY.                                                 NOR:   COUNTRY
CBD1.F                                             1192.0:   CSG 1 DRILL DEP
CBL1.F                                             1197.0:   CSG 1 LOG DEP
CS1 .IN                                           13.3750:   CSG 1 SIZE
COMP.                        ESSO EXPLORATION NORWAY INC.:   OPERATOR
PDAT.                                                 MSL:   PERM DATUM
PROV.                                  OFFSHORE NORTH SEA:   PROVINCE
COUN.                                      OCEAN TRAVELER:   RIG NAME
SPUD.                                          1967/07/11:   SPUD DATE
LATI.                                       58 53 35.40 N:   SURF. LATITUDE
LONG.                                        2 21 32.30 E:   SURF. LONGITUDE
BTD1.                                            3660.0 F:   TOTAL DEPTH 1
BTD2.                                            6267.0 F:   TOTAL DEPTH 2
PBWE.                                              16/2-1:   PB WELL ID
APIN.                                              16/2-1:   PB WELLBORE ID
PBWS.                                                 all:   PB WELL NAME SET
~PARAMETER INFORMATION (log)
LNAM.                                               IES-2:   NAME
LTYP.                                                 RAW:   LOG TYPE
LSRV.                                           INDUCTION:   LOG SERVICE
LSOU.                                             NPD/SPT:   LOG SOURCE
LVSN.                                                   1:   LOG VERSION
LRUN.                                                   2:   LOG RUN
BLI .F                                             3659.0:   BOTTOM DEPTH LOGGED
BHIS.                                                   R:   BRIEF HISTORY
R1  .                                OLD WELL NAME 16/2-1:   COMMENT  1
R2  .                                   LOGGED AS IEL-1-2:   COMMENT  2
R3  .                                 RUCKER DEVICE USED.:   COMMENT  3
DMF .                                                  RT:   DRILL MEAS FROM
EDF .F                                               85.0:   ELEV DRILL FLOOR
ENGI.                                              C.ROSS:   ENGINEER
TDD .F                                             3850.0:   FINAL TD DRILLER
TDL .F                                             3660.0:   FINAL TD LOGGER
DFL .                                                 4.0:   FLUID LOSS
FHIS.                                             RAW-LIS:   FULL HISTORY
EKB .F                                               85.0:   KB ELEVATION
LCNM.                                                SCHL:   LOGGING CONTRACTOR
LMF .                                                  RT:   LOGS MEAS FROM
DFD .                                        9.6000003815:   MUD DENSITY
DFPH.                                                10.0:   MUD PH
DFT .                                 W-SPERSENE XP-20 SW:   MUD TYPE
DFV .                                                45.0:   MUD VISCOSITY
RMS .OHMM                                    .31000000238:   RM
MSS .                                            FLOWLINE:   RM SOURCE
MST .DEGF                                            70.0:   RM TEMP
RMCS.OHMM                                    .77999997139:   RMC
MCST.DEGF                                            64.0:   RMC TEMP
RMFS.OHMM                                    .20999997854:   RMF
MMFS.                                              BAROID:   RMF SOURCE
MFST.DEGF                                            64.0:   RMF TEMP
TLAB.                                      1967/07/210900:   TIME LOGGER ON BOT
TCS .                                              9.0 HR:   TIME SINCE CIRCLN
TOOL.                                               IES-2:   TOOL STRING
TLI .F                                             1197.0:   TOP DEPTH LOGGED
WITN.                                             J.VOGEL:   WITNESS
~Curve Information Block
#MNEM.UNIT                                        API CODE    No Description
#=========                                        ========    == ===========
DEPT.M                                       00 001 00 00:     1  DEPTH
CILD.                                                    :     2  Deep induction conductivity
ILD.OHMM                                                 :     3  Deep induction resistivity
SN.OHMM                                                  :     4  Medium Resistivity
SP.MV                                                    :     5  Spontaneous potential
~ASCII
# ...
  649.1204   706.9720     1.4147     1.7038    69.9338
  649.2728   712.4615     1.4037     1.7009    70.0324
  649.4252   717.9244     1.3929     1.6918    70.1757
  649.5776   724.5056     1.3801     1.6809    70.3189
  649.7300   731.2678     1.3673     1.6644    70.2745
  649.8824   738.0837     1.3545     1.6505    70.1501
  650.0348   745.0974     1.3417     1.6408    70.0257
  650.1872   750.7784     1.3319     1.6308    69.9722
  650.3396   751.9747     1.3298     1.6274    69.9742
  650.4920   749.5089     1.3347     1.6286    69.9762
  650.6444   743.2970     1.3463     1.6310    69.9682
  650.7968   735.6239     1.3604     1.6395    69.9315
  650.9492   728.2156     1.3724     1.6499    69.8947
  651.1016   720.9836     1.3860     1.6580    69.8580
  651.2540   714.1859     1.3994     1.6657    69.8212
  651.4064   710.5665     1.4069     1.6762    69.7979
  651.5588   709.1449     1.4102     1.6878    69.8615
  651.7112   710.2318     1.4081     1.7000    69.9250
  651.8636   710.6104     1.4072     1.7140    69.9886
  652.0160   710.6033     1.4073     1.7192    70.0522
  652.1684   710.5925     1.4073     1.7126    70.1157
  652.3208   708.7338     1.4109     1.7145    70.1793
  652.4732   706.8749     1.4147     1.7204    70.2255
  652.6256   703.1764     1.4222     1.7261    70.2638
  652.7780   694.9839     1.4394     1.7328    70.3022
  652.9304   680.9160     1.4690     1.7348    70.3406
  653.0828   672.7372     1.4865     1.7354    70.3789
  653.2352   672.1947     1.4879     1.7438    70.3930
  653.3876   674.7013     1.4811     1.7481    70.3283
  653.5400   686.3375     1.4554     1.7429    70.2635
  653.6924   696.0856     1.4361     1.7269    70.1988
  653.8448   699.6895     1.4292     1.7026    70.1341
  653.9972   697.5234     1.4341     1.6734    70.0694
  654.1496   695.3911     1.4380     1.6578    70.0046
  654.3020   698.3929     1.4323     1.6555    69.9399
  654.4544   699.2582     1.4299     1.6662    69.8752
  654.6068   694.7390     1.4389     1.6833    69.8448
  654.7592   684.2738     1.4604     1.6991    69.8896
  654.9116   675.3075     1.4802     1.7119    69.9345
  655.0640   668.2821     1.4959     1.7216    69.9794
  655.2164   664.1936     1.5055     1.7208    70.0242
  655.3688   663.1842     1.5078     1.7181    70.0896
  655.5212   664.7010     1.5045     1.7196    70.1643
  655.6736   668.7373     1.4953     1.7163    70.2391
  655.8260   674.7478     1.4819     1.7117    70.3138
  655.9784   679.8866     1.4707     1.7088    70.3886
  656.1308   683.4893     1.4628     1.7064    70.4629
  656.2832   687.7317     1.4537     1.7049    70.5355
  656.4356   690.4991     1.4482     1.6992    70.6080
  656.5880   692.0662     1.4441     1.6883    70.5155
  656.7404   699.6681     1.4282     1.6787    70.1971
  656.8928   707.6865     1.4121     1.6705    69.8788
  657.0452   714.5582     1.3984     1.6576    69.8195
  657.1976   721.3203     1.3871     1.6486    69.7753
  657.3500   727.9889     1.3745     1.6398    69.7311
  657.5024   734.4008     1.3624     1.6224    69.6869
  657.6548   740.8126     1.3505     1.5995    69.6977
  657.8072   745.6154     1.3415     1.5812    69.7384
  657.9596   749.9834     1.3337     1.5828    69.7792
  658.1120   751.2795     1.3311     1.5856    69.8199
  658.2644   752.0966     1.3296     1.5887    69.8606
  658.4168   752.0891     1.3296     1.5870    69.8985
  658.5692   752.0817     1.3296     1.5870    69.9338
  658.7216   750.2244     1.3329     1.5875    69.9691
  658.8740   748.3656     1.3363     1.5868    70.0045
  659.0264   744.6726     1.3430     1.5880    70.0398
  659.1788   738.7244     1.3542     1.5902    70.0752
  659.3312   729.3613     1.3719     1.6053    70.0759
  659.4836   716.3574     1.3971     1.6180    70.0512
  659.6360   703.6487     1.4220     1.6279    70.0265
  659.7884   697.8145     1.4333     1.6396    70.0018
  659.9408   699.6105     1.4267     1.6615    69.9771
  660.0932   723.3706     1.3770     1.6802    69.9524
  660.2456   761.2115     1.3178     1.6852    69.9277
  660.3980   798.6897     1.2564     1.6738    69.9009
  660.5504   822.0983     1.2177     1.6334    69.8615
  660.7028   828.7957     1.2067     1.5631    69.8221
  660.8552   823.9794     1.2130     1.5088    69.7827
  661.0076   828.5104     1.2073     1.4889    69.7432
  661.1600   829.1216     1.2061     1.5082    69.7504
  661.3124   818.8884     1.2206     1.5853    69.8448
  661.4648   788.9471     1.2666     1.6601    69.9391
  661.6172   748.8848     1.3348     1.7111    70.0335
  661.7696   707.7422     1.4129     1.7410    70.1265
  661.9220   674.0175     1.4840     1.7625    70.1952
  662.0744   656.3291     1.5240     1.7712    70.2638
  662.2268   650.4550     1.5374     1.7687    70.3220
  662.3792   652.8506     1.5314     1.7747    70.2533
  662.5316   657.4722     1.5206     1.7807    70.1846
  662.6840   663.8451     1.5054     1.7828    70.1242
  662.8364   673.1996     1.4841     1.7847    70.0862
  662.9888   683.9496     1.4606     1.7747    70.0481
  663.1412   694.9563     1.4371     1.7635    70.0101
  663.2936   706.9912     1.4130     1.7553    69.9720
  663.4460   716.4126     1.3970     1.7414    69.9464
  663.5984   722.4407     1.3848     1.7323    69.9484
  663.7508   723.7828     1.3817     1.7202    69.9504
  663.9032   721.9857     1.3849     1.7052    69.9524
  664.0556   725.1932     1.3795     1.7025    69.9544
  664.2080   732.4037     1.3658     1.7061    69.9563
  664.3604   739.6183     1.3524     1.7115    69.9583
  664.5128   746.8344     1.3392     1.7075    69.9603
  664.6652   753.9413     1.3265     1.6887    69.9757
  664.8176   759.7303     1.3163     1.6500    70.0130
  664.9700   759.7228     1.3162     1.6132    70.0503
  665.1224   763.3737     1.3097     1.5915    70.0876
  665.2748   772.4379     1.2943     1.5872    70.1248
  665.4272   780.4551     1.2809     1.5909    70.1621
  665.5796   788.4724     1.2684     1.6105    70.2486
  665.7320   781.8011     1.2800     1.6237    70.3507
  665.8844   771.1418     1.2977     1.6251    70.4527
  666.0368   763.6472     1.3094     1.6186    70.5547
  666.1892   768.1262     1.3007     1.6103    70.3868
  666.3416   780.7122     1.2793     1.5982    70.1486
  666.4940   796.4961     1.2574     1.5903    69.9861
  666.6464   809.2029     1.2371     1.5804    69.9881
  666.7988   821.9095     1.2178     1.5662    69.9901
  666.9512   833.5835     1.2004     1.5538    69.9921
  667.1036   837.0139     1.1949     1.5418    69.9940
  667.2560   830.6089     1.2036     1.5350    69.9960
  667.4084   818.9077     1.2206     1.5356    69.9980
  667.5608   805.9669     1.2404     1.5411    70.0018
  667.7132   793.6213     1.2598     1.5605    70.0452
  667.8656   781.6058     1.2794     1.5930    70.0886
  668.0180   765.6631     1.3062     1.6306    70.1320
  668.1704   747.2776     1.3386     1.6615    70.1754
  668.3228   732.4277     1.3657     1.6705    70.1992
  668.4752   723.2892     1.3827     1.6722    70.1648
  668.6276   720.6113     1.3877     1.6762    70.1304
  668.7800   723.8994     1.3809     1.6789    70.0959
  668.9324   730.2902     1.3687     1.6790    70.0615
  669.0848   736.8485     1.3570     1.6798    70.0271
  669.2372   736.5845     1.3578     1.6836    69.9304
  669.3896   734.8351     1.3614     1.6884    69.8180
  669.5420   731.2234     1.3672     1.6909    69.7056
  669.6944   729.6658     1.3705     1.6879    69.6310
  669.8468   729.6584     1.3705     1.6831    69.6329
  669.9992   728.8167     1.3719     1.6825    69.6373
  670.1516   725.5326     1.3780     1.6885    69.7894
  670.3040   720.5410     1.3873     1.6982    69.9414
  670.4564   713.3271     1.4014     1.7107    69.9925
  670.6088   706.1133     1.4159     1.7210    69.8727
  670.7612   699.2675     1.4299     1.7285    69.7530
  670.9136   695.0171     1.4388     1.7343    69.6415
  671.0660   690.7667     1.4477     1.7438    69.6408
  671.2184   685.9634     1.4580     1.7527    69.6401
