~VERSION INFORMATION
VERS.                                                 2.0:   CWLS Log ASCII Standard-VERSION 2.0
WRAP.                                                  NO:   One line per depth step
~Well Information Block
STRT.M                                           359.8652:   Top Depth
STOP.M                                          1124.7608:   Bottom Depth
STEP.M                                             .15240:   Depth Increment
NULL.                                            -999.250:   Null Value
FLD .                                             WILDCAT:   Field Name
WELL.                                              16/2-1:   NAME
WBN .                                              16/2-1:   WELLBORE
NATI.                                                 NOR:   COUNTRY
BHT1.DEGF                                           100.0:   BH TEMP 1
BHT2.DEGF                                           165.0:   BH TEMP 2
BS1 .IN                                            12.250:   BIT SIZE 1
CTRY.                                                 NOR:   COUNTRY
CBD1.F                                             1192.0:   CSG 1 DRILL DEP
CBL1.F                                             1197.0:   CSG 1 LOG DEP
CS1 .IN                                           13.3750:   CSG 1 SIZE
COMP.                        ESSO EXPLORATION NORWAY INC.:   OPERATOR
PDAT.                                                 MSL:   PERM DATUM
PROV.                                  OFFSHORE NORTH SEA:   PROVINCE
COUN.                                      OCEAN TRAVELER:   RIG NAME
SPUD.                                          1967/07/11:   SPUD DATE
LATI.                                       58 53 35.40 N:   SURF. LATITUDE
LONG.                                        2 21 32.30 E:   SURF. LONGITUDE
BTD1.                                            3660.0 F:   TOTAL DEPTH 1
BTD2.                                            6267.0 F:   TOTAL DEPTH 2
PBWE.                                              16/2-1:   PB WELL ID
APIN.                                              16/2-1:   PB WELLBORE ID
PBWS.                                                 all:   PB WELL NAME SET
~PARAMETER INFORMATION (log)
LNAM.                                               IES-2:   NAME
LTYP.                                                 RAW:   LOG TYPE
LSRV.                                           INDUCTION:   LOG SERVICE
LSOU.                                             NPD/SPT:   LOG SOURCE
LVSN.                                                   1:   LOG VERSION
LRUN.                                                   2:   LOG RUN
BLI .F                                             3659.0:   BOTTOM DEPTH LOGGED
BHIS.                                                   R:   BRIEF HISTORY
R1  .                                OLD WELL NAME 16/2-1:   COMMENT  1
R2  .                                   LOGGED AS IEL-1-2:   COMMENT  2
R3  .                                 RUCKER DEVICE USED.:   COMMENT  3
DMF .                                                  RT:   DRILL MEAS FROM
EDF .F                                               85.0:   ELEV DRILL FLOOR
ENGI.                                              C.ROSS:   ENGINEER
TDD .F                                             3850.0:   FINAL TD DRILLER
TDL .F                                             3660.0:   FINAL TD LOGGER
DFL .                                                 4.0:   FLUID LOSS
FHIS.                                             RAW-LIS:   FULL HISTORY
EKB .F                                               85.0:   KB ELEVATION
LCNM.                                                SCHL:   LOGGING CONTRACTOR
LMF .                                                  RT:   LOGS MEAS FROM
DFD .                                        9.6000003815:   MUD DENSITY
DFPH.                                                10.0:   MUD PH
DFT .                                 W-SPERSENE XP-20 SW:   MUD TYPE
DFV .                                                45.0:   MUD VISCOSITY
RMS .OHMM                                    .31000000238:   RM
MSS .                                            FLOWLINE:   RM SOURCE
MST .DEGF                                            70.0:   RM TEMP
RMCS.OHMM                                    .77999997139:   RMC
MCST.DEGF                                            64.0:   RMC TEMP
RMFS.OHMM                                    .20999997854:   RMF
MMFS.                                              BAROID:   RMF SOURCE
MFST.DEGF                                            64.0:   RMF TEMP
TLAB.                                      1967/07/210900:   TIME LOGGER ON BOT
TCS .                                              9.0 HR:   TIME SINCE CIRCLN
TOOL.                                               IES-2:   TOOL STRING
TLI .F                                             1197.0:   TOP DEPTH LOGGED
WITN.                                             J.VOGEL:   WITNESS
~Curve Information Block
#MNEM.UNIT                                        API CODE    No Description
#=========                                        ========    == ===========
DEPT.M                                       00 001 00 00:     1  DEPTH
CILD.                                                    :     2  Deep induction conductivity
ILD.OHMM                                                 :     3  Deep induction resistivity
SN.OHMM                                                  :     4  Medium Resistivity
SP.MV                                                    :     5  Spontaneous potential
~ASCII
# ...
  849.3740   667.3853     1.5621     1.6911    70.7781
  849.5264   675.8456     1.5530     1.6974    70.6806
  849.6788   684.3059     1.5439     1.6785    70.6372
  849.8312   685.4076     1.5349     1.6669    70.5938
  849.9836   677.6688     1.5306     1.6661    70.5504
  850.1360   666.6799     1.5720     1.6759    70.5069
  850.2884   652.9628     1.6134     1.6889    70.4635
  850.4408   639.2456     1.6548     1.6990    70.4201
  850.5932   629.8055     1.6871     1.7064    70.3767
  850.7456   621.8058     1.6978     1.7225    70.3333
  850.8980   618.0997     1.7084     1.7493    70.2899
  851.0504   615.9840     1.7191     1.7696    70.2804
  851.2028   616.0039     1.7298     1.7649    70.2972
  851.3552   617.7047     1.7404     1.7608    70.3140
  851.5076   621.0945     1.7186     1.7569    70.3308
  851.6600   628.6519     1.6908     1.7519    70.3476
  851.8124   638.1301     1.6625     1.7409    70.3644
  851.9648   647.9668     1.6342     1.7388    70.3811
  852.1172   653.0092     1.6058     1.7365    70.3979
  852.2696   658.0015     1.6025     1.7198    70.4147
  852.4220   661.4652     1.6023     1.6877    70.4315
  852.5744   664.9290     1.5990     1.6587    70.4483
  852.7268   668.2787     1.5913     1.6401    70.5261
  852.8792   671.5833     1.5836     1.6225    70.6041
  853.0316   671.9086     1.5560     1.6057    70.5965
  853.1840   671.9283     1.5225     1.5913    70.5087
  853.3364   677.6897     1.4890     1.5797    70.4385
  853.4888   692.6171     1.4582     1.5636    70.4365
  853.6412   716.8132     1.4281     1.5358    70.4345
  853.7936   759.5977     1.3536     1.4909    70.4325
  853.9460   803.1012     1.2674     1.4249    70.4306
  854.0984   844.5719     1.1712     1.3521    70.4581
  854.2508   886.8784     1.1249     1.2840    70.7900
  854.4032   956.3876     1.0425     1.2285    71.1218
  854.5556  1001.2098      .9932     1.1799    71.4369
  854.7080  1111.5845      .8948     1.1119    71.6247
  854.8604  1198.2285      .8331     1.0282    71.8124
  855.0128  1225.8945      .8168      .9956    72.0002
  855.1652  1241.4402      .8062     1.0026    72.1591
  855.3176  1268.7485      .7894      .9842    72.3174
  855.4700  1302.8650      .7685      .9672    72.3612
  855.6224  1336.8030      .7488      .9432    72.2924
  855.7748  1361.0090      .7351      .9231    72.2236
  855.9272  1378.3503      .7256      .9082    72.2197
  856.0796  1367.9890      .7309      .8995    72.2723
  856.2320  1344.8154      .7436      .8969    72.3250
  856.3844  1320.8584      .7572      .8943    72.3777
  856.5368  1300.9312      .7689      .8897    72.3375
  856.6892  1285.7629      .7780      .8817    72.2874
  856.8416  1274.3867      .7848      .8775    72.2373
  856.9940  1269.8030      .7874      .8786    72.1872
  857.1464  1277.1609      .7827      .8805    72.0644
  857.2988  1285.0315      .7781      .8805    71.9210
  857.4512  1286.0537      .7778      .8786    71.7775
  857.6036  1283.7820      .7790      .8769    71.8736
  857.7560  1287.9629      .7767      .8826    71.9762
  857.9084  1299.5105      .7699      .8882    72.0787
  858.0608  1314.1919      .7613      .8850    72.1983
  858.2132  1328.7229      .7529      .8801    72.3967
  858.3656  1333.2612      .7501      .8753    72.5950
  858.5180  1331.8726      .7508      .8729    72.6898
  858.6704  1323.0208      .7558      .8780    72.3871
  858.8228  1312.1160      .7621      .8840    72.1689
  858.9752  1305.5510      .7660      .8888    72.2376
  859.1276  1302.5916      .7678      .8935    72.3063
  859.2800  1297.4565      .7711      .9053    72.4128
  859.4324  1278.8457      .7831      .9224    72.5711
  859.5848  1235.7031      .8109      .9365    72.7294
  859.7372  1182.3381      .8494      .9512    72.7361
  859.8896  1104.5837      .9101      .9742    72.4466
  860.0420  1026.8296      .9783     1.0090    72.1439
  860.1944   943.8596     1.0519     1.0627    71.9391
  860.3468   887.5077     1.1324     1.1043    71.7367
  860.4992   839.3734     1.2120     1.1362    71.5342
  860.6516   791.6891     1.2916     1.1673    71.3363
  860.8040   748.8729     1.3712     1.1930    71.3945
  860.9564   722.0552     1.4139     1.2119    71.4526
  861.1088   733.7708     1.3862     1.2194    71.5108
  861.2612   774.0686     1.2959     1.2064    71.5873
  861.4136   823.5912     1.2142     1.1832    71.6712
  861.5660   901.9806     1.1076     1.1500    71.7406
  861.7184   980.3699     1.0192     1.1065    71.7887
  861.8708  1028.0090      .9698     1.0595    71.8368
  862.0232  1125.6426      .8856     1.0122    71.8849
  862.1756  1206.7920      .8261      .9657    72.0000
  862.3280  1269.5798      .7854      .9275    72.1984
  862.4804  1329.7849      .7492      .9010    72.3968
  862.6328  1377.0579      .7271      .8839    72.5000
  862.7852  1393.1670      .7180      .8802    72.4767
  862.9376  1389.6743      .7193      .8823    72.4079
  863.0900  1379.9326      .7244      .8807    72.3391
  863.2424  1370.3901      .7295      .8795    72.2636
  863.3948  1366.3994      .7318      .8809    72.1758
  863.5472  1363.5195      .7334      .8853    72.0879
  863.6996  1366.0576      .7320      .8896    72.0000
  863.8520  1370.7144      .7295      .8912    71.9121
  864.0044  1375.3398      .7271      .8912    71.7114
  864.1568  1379.3767      .7249      .8927    71.5138
  864.3092  1383.6177      .7226      .8950    71.8323
  864.4616  1390.5271      .7190      .8950    72.1507
  864.6140  1397.4395      .7154      .8950    72.3418
  864.7664  1406.6277      .7106      .8950    72.4491
  864.9188  1416.5232      .7056      .8950    72.1994
  865.0712  1426.7410      .7006      .8995    72.2406
  865.2236  1436.9753      .6963      .9061    72.4663
  865.3760  1433.0942      .6976      .9108    72.4643
  865.5284  1399.7080      .7135      .9156    72.4623
  865.6808  1316.1567      .7576      .9302    72.4595
  865.8332  1219.8975      .8174      .9605    72.3907
  865.9856  1128.8372      .8840     1.0011    72.3219
  866.1380  1042.6570      .9576     1.0549    72.2404
  866.2904   951.6259     1.0498     1.1167    71.8722
  866.4428   859.7308     1.1628     1.2147    71.5042
  866.5952   786.1456     1.2726     1.3085    71.1360
  866.7476   730.6804     1.3717     1.3833    70.8238
  866.9000   687.8646     1.4609     1.4311    70.6803
  867.0524   664.2054     1.5246     1.4696    70.5369
  867.2048   660.0988     1.5535     1.5093    70.4385
  867.3572   661.8398     1.5237     1.5449    70.3964
  867.5096   670.2734     1.4995     1.5584    70.3544
  867.6620   679.5363     1.4753     1.5660    70.3123
  867.8144   690.2896     1.4683     1.5831    70.2702
  867.9668   690.8015     1.4738     1.5934    70.2579
  868.1192   689.6608     1.4793     1.6038    70.2760
  868.2716   687.2738     1.4838     1.6125    70.2940
  868.4240   686.2805     1.4793     1.6219    70.3121
  868.5764   687.3958     1.4748     1.6315    70.3301
  868.7288   689.6288     1.4704     1.6403    70.3482
  868.8812   692.6624     1.4659     1.6446    70.3662
  869.0336   695.6958     1.4582     1.6500    70.3843
  869.1860   697.7806     1.4471     1.6548    70.4024
  869.3384   699.8091     1.4539     1.6596    70.4204
  869.4908   696.0328     1.4692     1.6653    70.4266
  869.6432   692.0421     1.4846     1.6760    70.4246
  869.7956   686.0847     1.4999     1.6853    70.4226
  869.9480   680.0905     1.5153     1.6872    70.4206
  870.1004   674.5979     1.5307     1.6912    70.4186
  870.2528   669.3551     1.5460     1.7055    70.4167
  870.4052   664.1097     1.5614     1.7257    70.4147
  870.5576   658.6625     1.5767     1.7376    70.3627
  870.7100   654.0876     1.5806     1.7405    70.2104
  870.8624   652.9038     1.5846     1.7486    70.0581
  871.0148   651.4978     1.5886     1.7618    70.1414
  871.1672   649.9125     1.5925     1.7742    70.3292
  871.3196   648.2660     1.5965     1.7812    70.5170
  871.4720   645.8784     1.6067     1.7830    70.5992
