~VERSION INFORMATION
VERS.                                                 2.0:   CWLS Log ASCII Standard-VERSION 2.0
WRAP.                                                  NO:   One line per depth step
~Well Information Block
STRT.M                                           359.8652:   Top Depth
STOP.M                                          1124.7608:   Bottom Depth
STEP.M                                             .15240:   Depth Increment
NULL.                                            -999.250:   Null Value
FLD .                                             WILDCAT:   Field Name
WELL.                                              16/2-1:   NAME
WBN .                                              16/2-1:   WELLBORE
NATI.                                                 NOR:   COUNTRY
BHT1.DEGF                                           100.0:   BH TEMP 1
BHT2.DEGF                                           165.0:   BH TEMP 2
BS1 .IN                                            12.250:   BIT SIZE 1
CTRY.                                                 NOR:   COUNTRY
CBD1.F                                             1192.0:   CSG 1 DRILL DEP
CBL1.F                                             1197.0:   CSG 1 LOG DEP
CS1 .IN                                           13.3750:   CSG 1 SIZE
COMP.                        ESSO EXPLORATION NORWAY INC.:   OPERATOR
PDAT.                                                 MSL:   PERM DATUM
PROV.                                  OFFSHORE NORTH SEA:   PROVINCE
COUN.                                      OCEAN TRAVELER:   RIG NAME
SPUD.                                          1967/07/11:   SPUD DATE
LATI.                                       58 53 35.40 N:   SURF. LATITUDE
LONG.                                        2 21 32.30 E:   SURF. LONGITUDE
BTD1.                                            3660.0 F:   TOTAL DEPTH 1
BTD2.                                            6267.0 F:   TOTAL DEPTH 2
PBWE.                                              16/2-1:   PB WELL ID
APIN.                                              16/2-1:   PB WELLBORE ID
PBWS.                                                 all:   PB WELL NAME SET
~PARAMETER INFORMATION (log)
LNAM.                                               IES-2:   NAME
LTYP.                                                 RAW:   LOG TYPE
LSRV.                                           INDUCTION:   LOG SERVICE
LSOU.                                             NPD/SPT:   LOG SOURCE
LVSN.                                                   1:   LOG VERSION
LRUN.                                                   2:   LOG RUN
BLI .F                                             3659.0:   BOTTOM DEPTH LOGGED
BHIS.                                                   R:   BRIEF HISTORY
R1  .                                OLD WELL NAME 16/2-1:   COMMENT  1
R2  .                                   LOGGED AS IEL-1-2:   COMMENT  2
R3  .                                 RUCKER DEVICE USED.:   COMMENT  3
DMF .                                                  RT:   DRILL MEAS FROM
EDF .F                                               85.0:   ELEV DRILL FLOOR
ENGI.                                              C.ROSS:   ENGINEER
TDD .F                                             3850.0:   FINAL TD DRILLER
TDL .F                                             3660.0:   FINAL TD LOGGER
DFL .                                                 4.0:   FLUID LOSS
FHIS.                                             RAW-LIS:   FULL HISTORY
EKB .F                                               85.0:   KB ELEVATION
LCNM.                                                SCHL:   LOGGING CONTRACTOR
LMF .                                                  RT:   LOGS MEAS FROM
DFD .                                        9.6000003815:   MUD DENSITY
DFPH.                                                10.0:   MUD PH
DFT .                                 W-SPERSENE XP-20 SW:   MUD TYPE
DFV .                                                45.0:   MUD VISCOSITY
RMS .OHMM                                    .31000000238:   RM
MSS .                                            FLOWLINE:   RM SOURCE
MST .DEGF                                            70.0:   RM TEMP
RMCS.OHMM                                    .77999997139:   RMC
MCST.DEGF                                            64.0:   RMC TEMP
RMFS.OHMM                                    .20999997854:   RMF
MMFS.                                              BAROID:   RMF SOURCE
MFST.DEGF                                            64.0:   RMF TEMP
TLAB.                                      1967/07/210900:   TIME LOGGER ON BOT
TCS .                                              9.0 HR:   TIME SINCE CIRCLN
TOOL.                                               IES-2:   TOOL STRING
TLI .F                                             1197.0:   TOP DEPTH LOGGED
WITN.                                             J.VOGEL:   WITNESS
~Curve Information Block
#MNEM.UNIT                                        API CODE    No Description
#=========                                        ========    == ===========
DEPT.M                                       00 001 00 00:     1  DEPTH
CILD.                                                    :     2  Deep induction conductivity
ILD.OHMM                                                 :     3  Deep induction resistivity
SN.OHMM                                                  :     4  Medium Resistivity
SP.MV                                                    :     5  Spontaneous potential
~ASCII
# ...
 1005.1268  1320.9136      .7570      .9101    72.2278
 1005.2792  1323.8286      .7554      .9103    72.1047
 1005.4316  1335.7544      .7486      .9086    71.9830
 1005.5840  1347.6780      .7419      .9041    71.8613
 1005.7364  1359.6013      .7352      .8994    71.7395
 1005.8888  1376.7622      .7260      .8939    71.6393
 1006.0412  1393.1169      .7175      .8841    71.8187
 1006.1936  1403.8054      .7120      .8774    71.9980
 1006.3460  1413.0378      .7074      .8820    72.1774
 1006.4984  1420.7063      .7036      .8835    72.3567
 1006.6508  1428.3779      .6997      .8788    72.4382
 1006.8032  1438.8374      .6954      .8684    72.3962
 1006.9556  1446.7156      .6915      .8582    72.3541
 1007.1080  1440.5049      .6940      .8574    72.3121
 1007.2604  1430.0413      .6991      .8613    72.2936
 1007.4128  1421.1631      .7035      .8679    72.3016
 1007.5652  1414.7300      .7068      .8727    72.3095
 1007.7176  1410.8601      .7088      .8732    72.3175
 1007.8700  1412.2783      .7081      .8733    72.3254
 1008.0224  1409.9019      .7093      .8730    72.3333
 1008.1748  1405.9517      .7113      .8700    72.3413
 1008.3272  1400.3787      .7141      .8717    72.3313
 1008.4796  1396.5227      .7161      .8750    72.2893
 1008.6320  1394.0950      .7173      .8762    72.2472
 1008.7844  1394.8145      .7168      .8772    72.2052
 1008.9368  1400.7292      .7137      .8754    72.1689
 1009.0892  1409.2437      .7094      .8632    72.1415
 1009.2416  1418.3738      .7048      .8570    72.1142
 1009.3940  1425.0576      .7015      .8524    72.0868
 1009.5464  1430.4290      .6989      .8478    72.0595
 1009.6988  1433.0903      .6977      .8432    72.0322
 1009.8512  1435.1956      .6969      .8402    72.0775
 1010.0036  1437.7815      .6957      .8378    72.1454
 1010.1560  1434.7856      .6968      .8362    72.2134
 1010.3084  1426.6448      .7008      .8367    72.2777
 1010.4608  1418.5000      .7048      .8397    72.3378
 1010.6132  1410.0906      .7090      .8424    72.3979
 1010.7656  1400.6133      .7139      .8468    72.4580
 1010.9180  1398.7781      .7149      .8487    72.4502
 1011.0704  1400.7983      .7139      .8473    72.4060
 1011.2228  1401.9158      .7133      .8464    72.3618
 1011.3752  1403.8328      .7123      .8455    72.3176
 1011.5276  1406.8726      .7108      .8455    72.1274
 1011.6800  1410.7920      .7088      .8453    71.9106
 1011.8324  1415.4309      .7064      .8417    71.7381
 1011.9848  1424.9436      .7015      .8370    71.7460
 1012.1372  1439.4573      .6945      .8344    71.7540
 1012.2896  1449.4763      .6893      .8317    71.7970
 1012.4420  1474.9136      .6773      .8305    71.9649
 1012.5944  1497.2847      .6678      .8284    72.1329
 1012.7468  1497.2002      .6679      .8239    72.3008
 1012.8992  1494.3191      .6692      .8341    72.4687
 1013.0516  1489.0752      .6714      .8566    72.5952
 1013.2040  1491.3022      .6707      .8659    72.6032
 1013.3564  1498.9758      .6674      .8607    72.6111
 1013.5088  1508.1714      .6632      .8578    72.6190
 1013.6612  1502.3455      .6655      .8687    72.6270
 1013.8136  1476.3879      .6769      .8860    72.3479
 1013.9660  1425.1155      .7011      .9090    72.0562
 1014.1184  1358.0222      .7358      .9359    71.8571
 1014.2708  1273.6406      .7850      .9688    71.8651
 1014.4232  1167.1545      .8575     1.0200    71.8730
 1014.5756  1060.6682      .9450     1.0954    71.8810
 1014.7280   996.1736     1.0064     1.1736    71.8889
 1014.8804   869.0181     1.1560     1.2583    71.8968
 1015.0328   793.8490     1.2658     1.3761    71.8633
 1015.1852   734.7446     1.3661     1.4727    71.7913
 1015.3376   705.7767     1.4143     1.5377    71.7161
 1015.4900   692.5261     1.4428     1.5737    71.5606
 1015.6424   694.9402     1.4400     1.5772    71.4051
 1015.7948   703.1597     1.4231     1.5657    71.2495
 1015.9472   722.4348     1.4215     1.5613    71.2266
 1016.0996   738.7786     1.3950     1.5682    71.4060
 1016.2520   753.8816     1.3684     1.5761    71.5853
 1016.4044   764.4572     1.3419     1.5825    71.7647
 1016.5568   774.3544     1.3153     1.5835    71.9441
 1016.7092   781.1671     1.2888     1.5786    72.1235
 1016.8616   787.5442     1.2848     1.5747    72.1071
 1017.0140   794.0696     1.2855     1.5761    71.9652
 1017.1664   799.8201     1.2863     1.5824    71.8232
 1017.3188   802.7435     1.2871     1.5809    71.7430
 1017.4712   805.6669     1.2411     1.5742    71.6653
 1017.6236   809.0244     1.2358     1.5648    71.6429
 1017.7760   812.6975     1.2302     1.5581    71.6508
 1017.9284   816.3706     1.2248     1.5487    71.6587
 1018.0808   817.9512     1.2224     1.5389    71.6654
 1018.2332   819.3738     1.2202     1.5318    71.4336
 1018.3856   821.9387     1.2160     1.5260    71.2018
 1018.5380   827.3962     1.2091     1.5201    70.9701
 1018.6904   833.1208     1.2010     1.5147    70.9805
 1018.8428   840.6699     1.1903     1.5046    71.0975
 1018.9952   849.5277     1.1780     1.4951    71.2403
 1019.1476   861.4047     1.1617     1.4867    71.3867
 1019.3000   873.2816     1.1458     1.4739    71.5331
 1019.4524   885.6007     1.1298     1.4606    71.6795
 1019.6048   898.9170     1.1129     1.4456    71.7460
 1019.7572   912.2333     1.0966     1.4300    71.6933
 1019.9096   925.5496     1.0806     1.4145    71.4615
 1020.0620   938.8606     1.0652     1.4034    71.4447
 1020.2144   952.1769     1.0502     1.3941    71.5726
 1020.3668   962.6246     1.0387     1.3847    71.7006
 1020.5192   972.4037     1.0282     1.3744    71.7669
 1020.6716   982.1827     1.0179     1.3648    71.6826
 1020.8240   990.6808     1.0091     1.3544    71.5983
 1020.9764   999.1597     1.0006     1.3453    71.5139
 1021.1288  1002.8723      .9970     1.3427    71.4296
 1021.2812  1002.9805      .9973     1.3427    71.4365
 1021.4336   997.5331     1.0030     1.3431    71.4444
 1021.5860   987.4336     1.0136     1.3452    71.4524
 1021.7384   975.2285     1.0247     1.3486    71.4603
 1021.8908   963.3727     1.0372     1.3562    71.4682
 1022.0432   951.6580     1.0500     1.3685    71.4762
 1022.1956   939.9386     1.0632     1.3811    71.4841
 1022.3480   928.2192     1.0767     1.3921    71.4921
 1022.5004   918.2429     1.0887     1.4023    71.4963
 1022.6528   909.3589     1.0994     1.4098    71.4376
 1022.8052   905.4110     1.1044     1.4142    71.3789
 1022.9576   903.5109     1.1068     1.4180    71.3439
 1023.1100   903.4303     1.1069     1.4229    71.5920
 1023.2624   905.6659     1.1041     1.4260    71.7381
 1023.4148   912.6393     1.0956     1.4202    71.7460
 1023.5672   920.5532     1.0861     1.4177    71.7540
 1023.7196   926.2893     1.0794     1.4112    71.7619
 1023.8720   931.0117     1.0739     1.4074    71.6129
 1024.0244   935.2085     1.0691     1.4127    71.4211
 1024.1768   937.2502     1.0668     1.4163    71.2825
 1024.3292   939.2936     1.0644     1.4153    71.1984
 1024.4816   941.0363     1.0625     1.4156    71.2063
 1024.6340   942.2927     1.0611     1.4170    71.2575
 1024.7864   943.5492     1.0600     1.4175    71.3987
 1024.9388   945.6566     1.0578     1.4139    71.5198
 1025.0912   949.0120     1.0540     1.4082    71.6341
 1025.2436   952.3647     1.0503     1.4026    71.5977
 1025.3960   955.7175     1.0465     1.3925    71.5612
 1025.5484   962.1461     1.0397     1.3870    71.5247
 1025.7008   968.8163     1.0324     1.3869    71.4882
 1025.8532   974.3455     1.0265     1.3869    71.4762
 1026.0056   976.8418     1.0238     1.3842    71.4841
 1026.1580   979.3383     1.0211     1.3799    71.4921
 1026.3104   975.5343     1.0251     1.3806    71.5000
 1026.4628   970.8853     1.0300     1.3834    71.5079
 1026.6152   965.6294     1.0357     1.3865    71.5159
 1026.7676   959.7593     1.0422     1.3948    71.5238
 1026.9200   950.7528     1.0521     1.4078    71.5182
 1027.0724   941.7444     1.0623     1.4160    71.4761
 1027.2248   932.7780     1.0725     1.4245    71.4341
