~VERSION INFORMATION
VERS.                                                 2.0:   CWLS Log ASCII Standard-VERSION 2.0
WRAP.                                                  NO:   One line per depth step
~Well Information Block
STRT.M                                           359.8652:   Top Depth
STOP.M                                          1124.7608:   Bottom Depth
STEP.M                                             .15240:   Depth Increment
NULL.                                            -999.250:   Null Value
FLD .                                             WILDCAT:   Field Name
WELL.                                              16/2-1:   NAME
WBN .                                              16/2-1:   WELLBORE
NATI.                                                 NOR:   COUNTRY
BHT1.DEGF                                           100.0:   BH TEMP 1
BHT2.DEGF                                           165.0:   BH TEMP 2
BS1 .IN                                            12.250:   BIT SIZE 1
CTRY.                                                 NOR:   COUNTRY
CBD1.F                                             1192.0:   CSG 1 DRILL DEP
CBL1.F                                             1197.0:   CSG 1 LOG DEP
CS1 .IN                                           13.3750:   CSG 1 SIZE
COMP.                        ESSO EXPLORATION NORWAY INC.:   OPERATOR
PDAT.                                                 MSL:   PERM DATUM
PROV.                                  OFFSHORE NORTH SEA:   PROVINCE
COUN.                                      OCEAN TRAVELER:   RIG NAME
SPUD.                                          1967/07/11:   SPUD DATE
LATI.                                       58 53 35.40 N:   SURF. LATITUDE
LONG.                                        2 21 32.30 E:   SURF. LONGITUDE
BTD1.                                            3660.0 F:   TOTAL DEPTH 1
BTD2.                                            6267.0 F:   TOTAL DEPTH 2
PBWE.                                              16/2-1:   PB WELL ID
APIN.                                              16/2-1:   PB WELLBORE ID
PBWS.                                                 all:   PB WELL NAME SET
~PARAMETER INFORMATION (log)
LNAM.                                               IES-2:   NAME
LTYP.                                                 RAW:   LOG TYPE
LSRV.                                           INDUCTION:   LOG SERVICE
LSOU.                                             NPD/SPT:   LOG SOURCE
LVSN.                                                   1:   LOG VERSION
LRUN.                                                   2:   LOG RUN
BLI .F                                             3659.0:   BOTTOM DEPTH LOGGED
BHIS.                                                   R:   BRIEF HISTORY
R1  .                                OLD WELL NAME 16/2-1:   COMMENT  1
R2  .                                   LOGGED AS IEL-1-2:   COMMENT  2
R3  .                                 RUCKER DEVICE USED.:   COMMENT  3
DMF .                                                  RT:   DRILL MEAS FROM
EDF .F                                               85.0:   ELEV DRILL FLOOR
ENGI.                                              C.ROSS:   ENGINEER
TDD .F                                             3850.0:   FINAL TD DRILLER
TDL .F                                             3660.0:   FINAL TD LOGGER
DFL .                                                 4.0:   FLUID LOSS
FHIS.                                             RAW-LIS:   FULL HISTORY
EKB .F                                               85.0:   KB ELEVATION
LCNM.                                                SCHL:   LOGGING CONTRACTOR
LMF .                                                  RT:   LOGS MEAS FROM
DFD .                                        9.6000003815:   MUD DENSITY
DFPH.                                                10.0:   MUD PH
DFT .                                 W-SPERSENE XP-20 SW:   MUD TYPE
DFV .                                                45.0:   MUD VISCOSITY
RMS .OHMM                                    .31000000238:   RM
MSS .                                            FLOWLINE:   RM SOURCE
MST .DEGF                                            70.0:   RM TEMP
RMCS.OHMM                                    .77999997139:   RMC
MCST.DEGF                                            64.0:   RMC TEMP
RMFS.OHMM                                    .20999997854:   RMF
MMFS.                                              BAROID:   RMF SOURCE
MFST.DEGF                                            64.0:   RMF TEMP
TLAB.                                      1967/07/210900:   TIME LOGGER ON BOT
TCS .                                              9.0 HR:   TIME SINCE CIRCLN
TOOL.                                               IES-2:   TOOL STRING
TLI .F                                             1197.0:   TOP DEPTH LOGGED
WITN.                                             J.VOGEL:   WITNESS
~Curve Information Block
#MNEM.UNIT                                        API CODE    No Description
#=========                                        ========    == ===========
DEPT.M                                       00 001 00 00:     1  DEPTH
CILD.                                                    :     2  Deep induction conductivity
ILD.OHMM                                                 :     3  Deep induction resistivity
SN.OHMM                                                  :     4  Medium Resistivity
SP.MV                                                    :     5  Spontaneous potential
~ASCII
  359.8652  -999.2500  -999.2500      .0041    79.4891
  360.0176  -999.2500  -999.2500      .0043    79.4910
  360.1700  -999.2500  -999.2500      .0044    79.4929
  360.3224  -999.2500  -999.2500      .0046    79.4948
  360.4748  -999.2500  -999.2500      .0048    79.4967
  360.6272  -999.2500  -999.2500      .0049    79.4986
  360.7796  -999.2500  -999.2500      .0051    79.5005
  360.9320  -999.2500  -999.2500      .0053    79.5024
  361.0844  -999.2500  -999.2500      .0054    79.5043
  361.2368  -999.2500  -999.2500      .0056    79.5062
  361.3892  -999.2500  -999.2500      .0058    79.5081
  361.5416  -999.2500  -999.2500      .0059    79.5100
  361.6940  -999.2500  -999.2500      .0061    79.5119
  361.8464  -999.2500  -999.2500      .0063    79.5173
  361.9988  -999.2500  -999.2500      .0067    79.5471
  362.1512  -999.2500  -999.2500      .0078    79.5769
  362.3036  -999.2500  -999.2500      .0091    79.6066
  362.4560  -999.2500  -999.2500      .0104    79.6364
  362.6084  -999.2500  -999.2500      .0117    79.6662
  362.7608  -999.2500  -999.2500      .0130    79.6959
  362.9132  -999.2500  -999.2500      .0143    79.7274
  363.0656  -999.2500  -999.2500      .0156    79.8215
  363.2180  -999.2500  -999.2500      .0169    79.9156
  363.3704  -999.2500  -999.2500      .0182    82.3496
  363.5228  -999.2500  -999.2500      .0195    90.7531
  363.6752  -999.2500  -999.2500      .0212    99.1566
  363.8276  -999.2500  -999.2500      .0278   100.5732
  363.9800  -999.2500  -999.2500      .0365   103.2024
  364.1324  -999.2500  -999.2500      .0450   105.3983
  364.2848  -999.2500  -999.2500      .0515   107.0422
  364.4372  -999.2500  -999.2500      .0564   108.0851
  364.5896  -999.2500  -999.2500      .0613   108.3808
  364.7420  -999.2500  -999.2500      .0778   107.2255
  364.8944    76.5361     2.7505      .1135   104.0936
  365.0468   325.7028     1.3966      .2148    99.7222
  365.1992   574.8195      .4899      .5781    92.7124
  365.3516   997.3271      .6557     1.0731    88.0056
  365.5040   996.2383     1.5678     1.4582    84.9936
  365.6564   519.2906     2.7445     1.7162    82.9346
  365.8088   132.0697     3.9158     1.8798    81.0538
  365.9612     1.9802     1.7914     1.9645    79.2978
  366.1136     1.9803     2.0698     2.0716    78.0188
  366.2660   242.9178     2.3396     2.1396    76.7401
  366.4184   438.8026     2.6705     2.1820    75.7972
  366.5708   456.5265     2.3294     2.2229    75.1098
  366.7232   447.1343     2.4418     2.2637    74.4224
  366.8756   429.8032     2.5543     2.3046    73.7670
  367.0280   392.0350     2.8902     2.3454    73.3967
  367.1804   318.1469     3.3227     2.3772    73.0265
  367.3328   352.3719     2.8971     2.3960    72.9206
  367.4852   385.7123     2.7650     2.4143    72.8275
  367.6376   398.2759     2.6447     2.4327    72.5813
  367.7900   419.2275     2.5418     2.4510    72.2980
  367.9424   443.0662     2.4535     2.4693    72.0148
  368.0948   431.2628     2.4962     2.4849    72.1327
  368.2472   413.0029     2.5388     2.4916    72.2932
  368.3996   407.1086     2.5477     2.4947    72.5324
  368.5520   410.2562     2.5476     2.4979    72.7716
  368.7044   412.3842     2.5475     2.5010    72.9920
  368.8568   415.3994     2.5474     2.5042    73.1877
  369.0092   416.0145     2.5473     2.5070    72.9140
  369.1616   416.0228     2.5472     2.5077    72.6405
  369.3140   414.6410     2.5651     2.5076    72.3669
  369.4664   412.5284     2.5861     2.5075    72.2806
  369.6188   410.4157     2.6053     2.5074    72.4645
  369.7712   410.1121     2.5853     2.5073    72.5780
  369.9236   410.0594     2.5652     2.5072    72.4915
  370.0760   408.5653     2.5444     2.5071    72.4051
  370.2284   410.6350     2.5143     2.5070    72.6002
  370.3808   417.0142     2.4842     2.4941    72.8111
  370.5332   425.6210     2.4542     2.4682    72.9717
  370.6856   434.5590     2.4302     2.4411    72.8109
  370.8380   444.4194     2.4079     2.4139    72.6502
  370.9904   450.5872     2.3856     2.3867    72.5289
  371.1428   451.1968     2.3633     2.3698    72.4281
  371.2952   449.2021     2.3528     2.3680    72.5102
  371.4476   446.4448     2.3668     2.3680    72.4970
  371.6000   442.0833     2.3808     2.3704    72.3117
  371.7524   434.7771     2.4240     2.3762    72.2164
  371.9048   424.6237     2.4943     2.3824    72.2757
  372.0572   416.1783     2.5646     2.3886    72.3349
  372.2096   410.7244     2.6321     2.3948    72.3937
  372.3620   406.8791     2.6851     2.4010    72.4452
  372.5144   404.3558     2.6920     2.4068    72.4966
  372.6668   401.8326     2.6990     2.4111    72.5480
  372.8192   400.3646     2.6885     2.4151    72.5391
  372.9716   400.3726     2.6542     2.4191    72.3584
  373.1240   408.6936     2.6116     2.4232    72.1776
  373.2764   428.1503     2.5035     2.4258    71.9969
  373.4288   454.4886     2.3493     2.4117    72.0730
  373.5812   489.5739     2.1417     2.3534    72.1611
  373.7336   529.4827     1.9465     2.2632    72.2493
  373.8860   572.6744     1.7922     2.1692    72.3374
  374.0384   615.8577     1.6777     2.0753    72.3550
  374.1908   649.4915     1.5877     1.9951    72.2998
  374.3432   679.2146     1.5050     1.9465    72.2445
  374.4956   699.7778     1.4504     1.9138    72.1893
  374.6480   710.2852     1.4340     1.8765    72.0467
  374.8004   703.5168     1.4766     1.8694    71.8895
  374.9528   681.7220     1.5225     1.8898    71.7323
  375.1052   658.3514     1.6047     1.9140    71.5983
  375.2576   631.0490     1.6869     1.9344    71.8641
  375.4100   603.7465     1.7796     1.9572    72.1299
  375.5624   580.1201     1.8858     1.9811    72.3636
  375.7148   565.5261     1.9136     1.9867    72.2217
  375.8672   556.3199     1.9339     1.9802    72.0798
  376.0196   551.2264     1.9457     1.9651    71.9760
  376.1720   551.3192     1.9464     1.9478    71.9753
  376.3244   554.9194     1.9410     1.9303    71.9745
  376.4768   558.1399     1.9356     1.9125    71.9738
  376.6292   561.1851     1.9302     1.8935    71.9731
  376.7816   561.1962     1.9248     1.8740    71.9724
  376.9340   560.2253     1.9194     1.8584    71.9717
  377.0864   559.2352     1.9141     1.8499    71.9710
  377.2388   558.3542     1.9087     1.8455    71.9703
  377.3912   557.2743     1.9033     1.8462    71.9695
  377.5436   557.2853     1.8979     1.8475    71.9688
  377.6960   554.5216     1.8925     1.8426    71.9681
  377.8484   551.4120     1.8894     1.8315    71.9698
  378.0008   551.3685     1.8893     1.8372    72.0322
  378.1532   554.6248     1.8892     1.8436    72.0946
  378.3056   558.3049     1.8891     1.8366    72.1570
  378.4580   563.7886     1.8890     1.8256    72.2226
  378.6104   567.8279     1.8889     1.8211    72.2885
  378.7628   568.9755     1.8888     1.8160    72.3544
  378.9152   562.4270     1.8887     1.8088    72.1377
  379.0676   555.8048     1.8817     1.7983    72.0155
  379.2200   549.4723     1.8616     1.7880    72.2147
  379.3724   553.5095     1.8415     1.7790    72.3567
  379.5248   565.3894     1.8215     1.7668    72.3560
  379.6772   578.4684     1.8014     1.7516    72.3553
  379.8296   589.0188     1.7863     1.7301    72.3546
  379.9820   591.1876     1.7787     1.6752    72.3539
  380.1344   591.1995     1.7712     1.6410    72.1037
  380.2868   588.0692     1.7636     1.6467    71.8504
  380.4392   583.2789     1.7560     1.6518    71.5971
  380.5916   581.3146     1.7551     1.6353    71.6550
  380.7440   581.1708     1.8029     1.6129    71.7685
  380.8964   574.4338     1.8507     1.5986    71.8820
  381.0488   566.0476     1.8985     1.5907    71.9976
  381.2012   557.2760     1.9463     1.5877    72.1168
  381.3536   552.8932     1.9464     1.5874    71.9756
  381.5060   549.8950     1.9463     1.5814    71.7349
  381.6584   555.1504     1.9372     1.5669    71.4943
  381.8108   561.1825     1.8892     1.5536    71.4228
  381.9632   569.7826     1.8411     1.5431    71.5855
