~VERSION INFORMATION
VERS.                                                 2.0:   CWLS Log ASCII Standard-VERSION 2.0
WRAP.                                                  NO:   One line per depth step
~Well Information Block
STRT.M                                           359.8652:   Top Depth
STOP.M                                          1124.7608:   Bottom Depth
STEP.M                                             .15240:   Depth Increment
NULL.                                            -999.250:   Null Value
FLD .                                             WILDCAT:   Field Name
WELL.                                              16/2-1:   NAME
WBN .                                              16/2-1:   WELLBORE
NATI.                                                 NOR:   COUNTRY
BHT1.DEGF                                           100.0:   BH TEMP 1
BHT2.DEGF                                           165.0:   BH TEMP 2
BS1 .IN                                            12.250:   BIT SIZE 1
CTRY.                                                 NOR:   COUNTRY
CBD1.F                                             1192.0:   CSG 1 DRILL DEP
CBL1.F                                             1197.0:   CSG 1 LOG DEP
CS1 .IN                                           13.3750:   CSG 1 SIZE
COMP.                        ESSO EXPLORATION NORWAY INC.:   OPERATOR
PDAT.                                                 MSL:   PERM DATUM
PROV.                                  OFFSHORE NORTH SEA:   PROVINCE
COUN.                                      OCEAN TRAVELER:   RIG NAME
SPUD.                                          1967/07/11:   SPUD DATE
LATI.                                       58 53 35.40 N:   SURF. LATITUDE
LONG.                                        2 21 32.30 E:   SURF. LONGITUDE
BTD1.                                            3660.0 F:   TOTAL DEPTH 1
BTD2.                                            6267.0 F:   TOTAL DEPTH 2
PBWE.                                              16/2-1:   PB WELL ID
APIN.                                              16/2-1:   PB WELLBORE ID
PBWS.                                                 all:   PB WELL NAME SET
~PARAMETER INFORMATION (log)
LNAM.                                               IES-2:   NAME
LTYP.                                                 RAW:   LOG TYPE
LSRV.                                           INDUCTION:   LOG SERVICE
LSOU.                                             NPD/SPT:   LOG SOURCE
LVSN.                                                   1:   LOG VERSION
LRUN.                                                   2:   LOG RUN
BLI .F                                             3659.0:   BOTTOM DEPTH LOGGED
BHIS.                                                   R:   BRIEF HISTORY
R1  .                                OLD WELL NAME 16/2-1:   COMMENT  1
R2  .                                   LOGGED AS IEL-1-2:   COMMENT  2
R3  .                                 RUCKER DEVICE USED.:   COMMENT  3
DMF .                                                  RT:   DRILL MEAS FROM
EDF .F                                               85.0:   ELEV DRILL FLOOR
ENGI.                                              C.ROSS:   ENGINEER
TDD .F                                             3850.0:   FINAL TD DRILLER
TDL .F                                             3660.0:   FINAL TD LOGGER
DFL .                                                 4.0:   FLUID LOSS
FHIS.                                             RAW-LIS:   FULL HISTORY
EKB .F                                               85.0:   KB ELEVATION
LCNM.                                                SCHL:   LOGGING CONTRACTOR
LMF .                                                  RT:   LOGS MEAS FROM
DFD .                                        9.6000003815:   MUD DENSITY
DFPH.                                                10.0:   MUD PH
DFT .                                 W-SPERSENE XP-20 SW:   MUD TYPE
DFV .                                                45.0:   MUD VISCOSITY
RMS .OHMM                                    .31000000238:   RM
MSS .                                            FLOWLINE:   RM SOURCE
MST .DEGF                                            70.0:   RM TEMP
RMCS.OHMM                                    .77999997139:   RMC
MCST.DEGF                                            64.0:   RMC TEMP
RMFS.OHMM                                    .20999997854:   RMF
MMFS.                                              BAROID:   RMF SOURCE
MFST.DEGF                                            64.0:   RMF TEMP
TLAB.                                      1967/07/210900:   TIME LOGGER ON BOT
TCS .                                              9.0 HR:   TIME SINCE CIRCLN
TOOL.                                               IES-2:   TOOL STRING
TLI .F                                             1197.0:   TOP DEPTH LOGGED
WITN.                                             J.VOGEL:   WITNESS
~Curve Information Block
#MNEM.UNIT                                        API CODE    No Description
#=========                                        ========    == ===========
DEPT.M                                       00 001 00 00:     1  DEPTH
CILD.                                                    :     2  Deep induction conductivity
ILD.OHMM                                                 :     3  Deep induction resistivity
SN.OHMM                                                  :     4  Medium Resistivity
SP.MV                                                    :     5  Spontaneous potential
~ASCII
# ...
  693.6212   684.5385     1.5172     1.7349    69.9349
  693.7736   675.6388     1.5332     1.7419    69.9342
  693.9260   668.5729     1.5492     1.7468    69.9335
  694.0784   667.0642     1.5640     1.7597    69.9328
  694.2308   666.2603     1.5565     1.7716    69.9321
  694.3832   665.5028     1.5490     1.7768    69.9315
  694.5356   666.5714     1.5446     1.7751    69.9308
  694.6880   672.0259     1.5446     1.7672    70.0286
  694.8404   678.0593     1.5446     1.7617    70.3277
  694.9928   684.7286     1.5422     1.7588    70.4191
  695.1452   691.5823     1.5197     1.7554    70.1261
  695.2976   690.7207     1.4972     1.7411    70.1254
  695.4500   690.9149     1.4851     1.7130    70.1039
  695.6024   703.7426     1.4464     1.6959    70.0032
  695.7548   720.0776     1.4064     1.6924    69.9555
  695.9072   736.4126     1.3664     1.6943    70.0880
  696.0596   752.7477     1.3282     1.6945    70.0232
  696.2120   769.1003     1.2997     1.6852    69.9231
  696.3644   785.7292     1.2719     1.6612    69.9225
  696.5168   802.3582     1.2450     1.6366    69.9218
  696.6692   825.1868     1.2102     1.6107    69.8175
  696.8216   848.6085     1.1766     1.5847    69.8096
  696.9740   872.0302     1.1449     1.5647    70.0456
  697.1264   890.1224     1.1220     1.5484    70.3086
  697.2788   903.7327     1.1075     1.5338    70.5125
  697.4312   907.9045     1.1016     1.5180    70.5011
  697.5836   898.5045     1.1121     1.5044    70.4337
  697.7360   880.4922     1.1345     1.4987    70.3664
  697.8884   863.1160     1.1576     1.4999    70.2991
  698.0408   845.8834     1.1813     1.5086    70.2318
  698.1932   828.6509     1.2061     1.5322    70.1644
  698.3456   811.3668     1.2320     1.5590    70.1204
  698.4980   790.3497     1.2649     1.5864    70.1611
  698.6504   769.3326     1.2998     1.6080    70.2018
  698.8028   751.6368     1.3306     1.6160    70.2424
  698.9552   739.9961     1.3515     1.6169    70.2831
  699.1076   735.9856     1.3589     1.6163    70.2379
  699.2600   732.1715     1.3659     1.6175    70.0773
  699.4124   731.2406     1.3676     1.6239    69.9167
  699.5648   730.3096     1.3691     1.6343    69.9791
  699.7172   732.9711     1.3639     1.6492    70.0533
  699.8696   738.9340     1.3523     1.6533    70.1143
  700.0220   748.4412     1.3338     1.6387    70.1451
  700.1744   770.6488     1.3005     1.6237    70.1760
  700.3268   792.8564     1.2637     1.6048    70.2068
  700.4792   815.0640     1.2288     1.5837    70.2377
  700.6316   836.3048     1.1972     1.5592    70.2685
  700.7840   857.3058     1.1675     1.5267    70.2966
  700.9364   876.8938     1.1411     1.4988    70.2361
  701.0888   888.8938     1.1253     1.4800    70.1756
  701.2412   894.2130     1.1183     1.4770    70.1151
  701.3936   888.3873     1.1256     1.4860    70.1743
  701.5460   879.8296     1.1366     1.4986    70.2782
  701.6984   870.5559     1.1488     1.5116    70.3821
  701.8508   857.5807     1.1663     1.5232    70.4860
  702.0032   843.9753     1.1853     1.5322    70.2365
  702.1556   827.9978     1.2085     1.5336    69.9594
  702.3080   808.7960     1.2375     1.5310    69.8986
  702.4604   788.3483     1.2698     1.5398    69.8983
  702.6128   767.9005     1.3033     1.5593    69.8980
  702.7652   755.8391     1.3241     1.5845    69.8977
  702.9176   744.6123     1.3442     1.6106    69.8974
  703.0700   732.8004     1.3663     1.6394    69.8971
  703.2224   719.3220     1.3921     1.6643    69.8968
  703.3748   705.8436     1.4185     1.6804    69.8965
  703.5272   698.6539     1.4309     1.6866    69.8962
  703.6796   695.3986     1.4375     1.6950    70.0548
  703.8320   694.7471     1.4394     1.7032    70.3542
  703.9844   694.7638     1.4393     1.7116    70.4895
  704.1368   693.5481     1.4416     1.7177    70.4892
  704.2892   690.9938     1.4469     1.7129    70.4889
  704.4416   688.7095     1.4518     1.7172    70.4886
  704.5940   687.8033     1.4538     1.7251    70.4883
  704.7464   686.9307     1.4557     1.7332    70.4512
  704.8988   688.5470     1.4524     1.7404    70.3098
  705.0512   690.1627     1.4490     1.7454    70.1685
  705.2036   693.0547     1.4430     1.7378    70.0910
  705.3560   697.0714     1.4346     1.7201    70.0907
  705.5084   701.0880     1.4263     1.7068    70.0904
  705.6608   705.7968     1.4167     1.7031    70.0901
  705.8132   711.0619     1.4061     1.7069    70.0898
  705.9656   716.3271     1.3957     1.7024    70.0233
  706.1180   723.1815     1.3823     1.6984    69.8926
  706.2704   730.1987     1.3694     1.6979    70.0255
  706.4228   730.7596     1.3684     1.6930    70.1584
  706.5752   727.5608     1.3757     1.6838    70.2864
  706.7276   715.5784     1.3990     1.6769    70.2861
  706.8800   701.7529     1.4252     1.6768    70.3716
  707.0324   704.6979     1.4153     1.6746    70.4837
  707.1848   730.9406     1.3648     1.6641    70.4834
  707.3372   762.7269     1.3158     1.6523    70.4831
  707.4896   797.2423     1.2582     1.6539    70.4828
  707.6420   831.7577     1.2055     1.6575    70.4562
  707.7944   808.4141     1.2350     1.6524    70.1893
  707.9468   777.8246     1.2835     1.6109    70.0857
  708.0992   776.6973     1.2878     1.5854    70.0854
  708.2516   784.7544     1.2748     1.5869    70.0851
  708.4040   794.2675     1.2594     1.6166    70.0848
  708.5564   776.5262     1.2868     1.6609    70.0845
  708.7088   728.1782     1.3716     1.6932    70.0842
  708.8612   690.9767     1.4401     1.7118    70.0766
  709.0136   671.2047     1.5311     1.7163    70.0335
  709.1660   661.5879     1.5789     1.7107    69.9904
  709.3184   667.0282     1.5726     1.7031    69.9472
  709.4708   680.4299     1.5366     1.7019    69.9041
  709.6232   692.4493     1.4960     1.6996    69.9402
  709.7756   704.4658     1.4539     1.6949    70.0428
  709.9280   710.3403     1.4398     1.6883    70.1453
  710.0804   709.2112     1.4612     1.6831    70.2478
  710.2328   704.4257     1.4647     1.6874    70.3503
  710.3852   701.8412     1.4395     1.6992    70.4528
  710.5376   708.5762     1.4101     1.7083    70.4769
  710.6900   722.5840     1.3813     1.7090    70.4766
  710.8424   742.2356     1.3445     1.7035    70.4763
  710.9948   762.1262     1.3143     1.6964    70.4760
  711.1472   765.1034     1.3062     1.6887    70.4607
  711.2996   750.1279     1.3309     1.6794    70.4104
  711.4520   732.9294     1.3625     1.6746    70.3601
  711.6044   719.4459     1.3885     1.6847    70.3098
  711.7568   709.7955     1.4080     1.7129    70.2258
  711.9092   702.8478     1.4223     1.7576    70.0756
  712.0616   691.8383     1.4442     1.7940    69.9253
  712.2140   671.1162     1.4888     1.8204    69.7750
  712.3664   655.6980     1.5243     1.8313    69.7335
  712.5188   652.4835     1.5325     1.8257    69.8743
  712.6712   656.4287     1.5235     1.8091    70.0151
  712.8236   661.3577     1.5121     1.7900    70.1439
  712.9760   664.7085     1.5044     1.7705    70.2636
  713.1284   668.0594     1.4968     1.7619    70.3833
  713.2808   670.8367     1.4906     1.7713    70.4369
  713.4332   672.8538     1.4861     1.7802    70.3033
  713.5856   674.9520     1.4814     1.7821    70.1697
  713.7380   677.1516     1.4764     1.7787    70.1434
  713.8904   685.4934     1.4577     1.7731    70.3830
  714.0428   698.1041     1.4310     1.7585    70.6226
  714.1952   711.3895     1.4041     1.7363    70.4967
  714.3476   724.6749     1.3783     1.7124    70.2847
  714.5000   737.2723     1.3548     1.6870    70.0729
  714.6524   748.4368     1.3349     1.6587    70.0726
  714.8048   759.5396     1.3181     1.6504    70.0881
  714.9572   763.3795     1.3104     1.6552    70.1735
  715.1096   755.8927     1.3221     1.6620    70.2589
  715.2620   748.0607     1.3360     1.6687    70.4438
  715.4144   741.7035     1.3478     1.6815    70.2916
  715.5668   741.7208     1.3482     1.6997    70.0913
  715.7192   743.4996     1.3451     1.7162    69.9359
