~Version Information Block
VERS .                 2.00:  CWLS LOG ASCII STANDARD - VERSION 2.00
WRAP .                   NO:  One line per depth step
~Well Information Block
#MNEM.UNIT        Data Type   Information
#---------- ----------------  -----------
STRT .M             0.00000:  START DEPTH
STOP .M          2091.69000:  STOP DEPTH
STEP .M             0.15240:  STEP
NULL .              -999.25:  NULL VALUE
COMP . Statoil Petroleum AS:  COMPANY
WELL .           NO_16/2-10:  WELL
FLD  .                     :  FIELD
LOC  .                     :  LOCATION
CTRY .                     :  COUNTRY
STAT .                     :  STATE
CNTY .                     :  COUNTY
API  .                     :  API NUMBER
UWI  .                     :  UNIQUE WELL ID
SRVC .                     :  SERVICE COMPANY
DATE .                     :  LOG DATE
~Curve Information Block
#MNEM.UNIT         API CODE   Curve Description
#---------- ----------------  -----------------
DEPTH.M                    :  
FTEMP.DEGC                 :  0.043*(TVDSS-115)+4
KLOGH.                     :  KLOGH
PHIT .V/V                  :  Limited apparent porosity
SAND .                     :  IFC((VSH<0.45&PHIT>0.12) 1 0)
SWT  .V/V                  :  Limited unflushed zone tot sat'n
VSH  .V/V                  :  Curve replaced from 1896.29 to 1896.64
~Parameter Information Block
#MNEM.UNIT            Value   Description
#---------- ----------------  -----------
SET  .                TOLT2:  
CUR_INT_BOT.             2310.384:  
~Other Information Block
#        DEPTH          FTEMP          KLOGH           PHIT           SAND            SWT            VSH 
~A
# ...
    2006.65080        84.3284         3.2183       0.140732         1.0000         1.0000         0.0000
    2006.80320        84.3349         5.1009       0.154278         1.0000         1.0000         0.0047
    2006.95560        84.3415         4.5659       0.151019         1.0000         1.0000         0.0021
    2007.10800        84.3480         2.4528       0.132744         1.0000         1.0000         0.0000
    2007.26040        84.3546         2.2913       0.130740         1.0000         1.0000         0.0000
    2007.41280        84.3612         3.1897       0.140469         1.0000         1.0000         0.0000
    2007.56520        84.3677         5.9719       0.158915         1.0000         1.0000         0.0059
    2007.71760        84.3743         5.9204       0.158660         1.0000         1.0000         0.0127
    2007.87000        84.3808         5.0654       0.154073         1.0000         1.0000         0.0000
    2008.02240        84.3874         4.5903       0.151176         1.0000         1.0000         0.0000
    2008.17480        84.3939         4.7131       0.151952         1.0000         1.0000         0.0000
    2008.32720        84.4005         5.2184       0.154948         1.0000         1.0000         0.0000
    2008.47960        84.4070         6.6215       0.161952         1.0000         1.0000         0.0701
    2008.63200        84.4136         7.5087       0.165650         1.0000         1.0000         0.0376
    2008.78440        84.4201        10.4663       0.175418         1.0000         0.9864         0.0697
    2008.93680        84.4267        10.7689       0.176256         1.0000         0.9877         0.0503
    2009.08920        84.4332        13.7776       0.183503         1.0000         0.9662         0.0567
    2009.24160        84.4398        15.5189       0.187003         1.0000         1.0000         0.0420
    2009.39400        84.4463        14.5350       0.185077         1.0000         0.9476         0.0195
    2009.54640        84.4529         5.3109       0.155465         1.0000         1.0000         0.0000
    2009.69880        84.4594         2.6789       0.135337         1.0000         1.0000         0.0000
    2009.85120        84.4660         2.9648       0.138319         1.0000         1.0000         0.0000
    2010.00360        84.4725         5.4629       0.156295         1.0000         1.0000         0.0000
    2010.15600        84.4791         5.5368       0.156690         1.0000         1.0000         0.0000
    2010.30840        84.4857         4.3536       0.149619         1.0000         1.0000         0.0000
    2010.46080        84.4922         5.0221       0.153821         1.0000         1.0000         0.0042
    2010.61320        84.4988         8.1328       0.167999         1.0000         1.0000         0.0252
    2010.76560        84.5053        10.7345       0.176162         1.0000         1.0000         0.0000
    2010.91800        84.5119        10.8134       0.176377         1.0000         1.0000         0.0000
    2011.07040        84.5184        10.5303       0.175597         1.0000         1.0000         0.0000
    2011.22280        84.5250         9.9854       0.174034         1.0000         1.0000         0.0000
    2011.37520        84.5315         9.9779       0.174012         1.0000         1.0000         0.0190
    2011.52760        84.5381         9.1219       0.171374         1.0000         1.0000         0.0391
    2011.68000        84.5446         9.2054       0.171642         1.0000         1.0000         0.0752
    2011.83240        84.5512         8.9873       0.170937         1.0000         1.0000         0.0648
    2011.98480        84.5577         9.7163       0.173231         1.0000         0.9843         0.0829
    2012.13720        84.5643         9.2404       0.171754         1.0000         0.9991         0.0284
    2012.28960        84.5708        10.6201       0.175847         1.0000         1.0000         0.0154
    2012.44200        84.5774        12.0265       0.179505         1.0000         1.0000         0.0000
    2012.59440        84.5839        16.8654       0.189450         1.0000         1.0000         0.0000
    2012.74680        84.5905        24.0009       0.199828         1.0000         0.9756         0.0000
    2012.89920        84.5971        30.1472       0.206534         1.0000         0.9541         0.0000
    2013.05160        84.6036        27.0253       0.203319         1.0000         0.9121         0.0456
    2013.20400        84.6102        18.9727       0.192913         1.0000         0.9609         0.0513
    2013.35640        84.6167        14.3655       0.184732         1.0000         1.0000         0.0458
    2013.50880        84.6233        13.7760       0.183499         1.0000         1.0000         0.0152
    2013.66120        84.6298        13.9157       0.183796         1.0000         1.0000         0.0092
    2013.81360        84.6364        14.9204       0.185846         1.0000         1.0000         0.0205
    2013.96600        84.6429        18.0277       0.191411         1.0000         0.9591         0.0000
    2014.11840        84.6495        22.1476       0.197464         1.0000         0.9580         0.0000
    2014.27080        84.6560        16.0976       0.188080         1.0000         1.0000         0.0000
    2014.42320        84.6626        10.0269       0.174156         1.0000         1.0000         0.0462
    2014.57560        84.6691         8.7385       0.170111         1.0000         1.0000         0.0540
    2014.72800        84.6757        14.7175       0.185444         1.0000         1.0000         0.0480
    2014.88040        84.6822        24.8014       0.200793         1.0000         0.9711         0.0535
    2015.03280        84.6888        29.6036       0.205999         1.0000         0.9128         0.0000
    2015.18520        84.6954        28.6883       0.205075         1.0000         0.8947         0.0000
    2015.33760        84.7019        25.2908       0.201368         1.0000         0.8954         0.0000
    2015.49000        84.7085        24.7606       0.200744         1.0000         0.9113         0.0543
    2015.64240        84.7150        28.4715       0.204852         1.0000         0.9910         0.1209
    2015.79480        84.7216        45.6612       0.218744         1.0000         1.0000         0.1309
    2015.94720        84.7281       100.1046       0.241832         1.0000         0.9492         0.0698
    2016.09960        84.7347       182.5900       0.259509         1.0000         0.8574         0.0697
    2016.25200        84.7412       158.9034       0.255423         1.0000         0.8222         0.0202
    2016.40440        84.7478        81.9612       0.235950         1.0000         0.8619         0.0228
    2016.55680        84.7543        40.0963       0.214922         1.0000         1.0000         0.0000
    2016.70920        84.7609        49.1722       0.220923         1.0000         1.0000         0.0017
    2016.86160        84.7674       141.2989       0.251969         1.0000         1.0000         0.0000
    2017.01400        84.7740       457.0667       0.286497         1.0000         0.9411         0.0405
    2017.16640        84.7805      1003.5154       0.309628         1.0000         0.8445         0.0358
    2017.31880        84.7871       911.6711       0.306805         1.0000         0.8193         0.0051
    2017.47120        84.7936       595.9987       0.294303         1.0000         0.8305         0.0000
    2017.62360        84.8002       393.7468       0.282111         1.0000         0.8199         0.0000
    2017.77600        84.8068       335.3849       0.277393         1.0000         0.7917         0.0412
    2017.92840        84.8133       455.4666       0.286394         1.0000         0.8831         0.0140
    2018.08080        84.8199       659.8613       0.297297         1.0000         0.8930         0.0081
    2018.23320        84.8264       617.7338       0.295357         1.0000         0.7792         0.0000
