~Version Information Block
VERS .                 2.00:  CWLS LOG ASCII STANDARD - VERSION 2.00
WRAP .                   NO:  One line per depth step
~Well Information Block
#MNEM.UNIT        Data Type   Information
#---------- ----------------  -----------
STRT .M             0.00000:  START DEPTH
STOP .M          2091.69000:  STOP DEPTH
STEP .M             0.15240:  STEP
NULL .              -999.25:  NULL VALUE
COMP . Statoil Petroleum AS:  COMPANY
WELL .           NO_16/2-10:  WELL
FLD  .                     :  FIELD
LOC  .                     :  LOCATION
CTRY .                     :  COUNTRY
STAT .                     :  STATE
CNTY .                     :  COUNTY
API  .                     :  API NUMBER
UWI  .                     :  UNIQUE WELL ID
SRVC .                     :  SERVICE COMPANY
DATE .                     :  LOG DATE
~Curve Information Block
#MNEM.UNIT         API CODE   Curve Description
#---------- ----------------  -----------------
DEPTH.M                    :  
FTEMP.DEGC                 :  0.043*(TVDSS-115)+4
KLOGH.                     :  KLOGH
PHIT .V/V                  :  Limited apparent porosity
SAND .                     :  IFC((VSH<0.45&PHIT>0.12) 1 0)
SWT  .V/V                  :  Limited unflushed zone tot sat'n
VSH  .V/V                  :  Curve replaced from 1896.29 to 1896.64
~Parameter Information Block
#MNEM.UNIT            Value   Description
#---------- ----------------  -----------
SET  .                TOLT2:  
CUR_INT_BOT.             2310.384:  
~Other Information Block
#        DEPTH          FTEMP          KLOGH           PHIT           SAND            SWT            VSH 
~A
# ...
    2065.32480        86.8513        27.4281       0.203754         1.0000         0.9213         0.0000
    2065.47720        86.8578        25.0122       0.201042         1.0000         0.9452         0.0212
    2065.62960        86.8644        27.5872       0.203924         1.0000         0.8177         0.0258
    2065.78200        86.8709        24.4784       0.200407         1.0000         0.8565         0.0915
    2065.93440        86.8775        18.9825       0.192928         1.0000         0.9415         0.0822
    2066.08680        86.8840        13.6264       0.183178         1.0000         0.9430         0.0912
    2066.23920        86.8906        11.6226       0.178500         1.0000         1.0000         0.1093
    2066.39160        86.8971        12.2373       0.180016         1.0000         1.0000         0.1313
    2066.54400        86.9037        15.4931       0.186954         1.0000         0.9987         0.1257
    2066.69640        86.9103        19.8716       0.194275         1.0000         0.9950         0.1229
    2066.84880        86.9168        26.7294       0.202995         1.0000         0.9433         0.0689
    2067.00120        86.9234        35.2383       0.211123         1.0000         0.9243         0.1380
    2067.15360        86.9299        47.3641       0.219821         1.0000         0.9126         0.0768
    2067.30600        86.9365        59.8585       0.226707         1.0000         0.8959         0.1069
    2067.45840        86.9430        58.9491       0.226257         1.0000         0.8142         0.0291
    2067.61080        86.9496        51.6346       0.222360         1.0000         0.9092         0.0349
    2067.76320        86.9561        38.3360       0.213601         1.0000         0.9507         0.0180
    2067.91560        86.9627        33.3854       0.209535         1.0000         0.9705         0.0000
    2068.06800        86.9692        31.0791       0.207429         1.0000         0.9772         0.0000
    2068.22040        86.9758        30.4659       0.206843         1.0000         0.9738         0.0000
    2068.37280        86.9823        28.9988       0.205391         1.0000         0.9743         0.0425
    2068.52520        86.9889        28.7619       0.205150         1.0000         0.9648         0.0961
    2068.67760        86.9954        27.6663       0.204008         1.0000         0.9452         0.0637
    2068.83000        87.0020        25.7889       0.201941         1.0000         0.9865         0.0612
    2068.98240        87.0086        27.5719       0.203907         1.0000         1.0000         0.0503
    2069.13480        87.0151        32.0109       0.208298         1.0000         0.9487         0.0382
    2069.28720        87.0217        35.2312       0.211117         1.0000         0.9577         0.0554
    2069.43960        87.0282        31.4415       0.207770         1.0000         0.9411         0.0306
    2069.59200        87.0348        28.3786       0.204756         1.0000         0.9511         0.0654
    2069.74440        87.0413        25.2930       0.201370         1.0000         0.9915         0.0343
    2069.89680        87.0479        22.7045       0.198195         1.0000         0.9453         0.0600
    2070.04920        87.0544        19.1030       0.193115         1.0000         1.0000         0.0696
    2070.20160        87.0610        17.4584       0.190467         1.0000         1.0000         0.0730
    2070.35400        87.0675        16.7907       0.189320         1.0000         0.9846         0.0890
    2070.50640        87.0741        18.1046       0.191536         1.0000         0.9472         0.0428
    2070.65880        87.0806        17.6530       0.190793         1.0000         0.9748         0.0415
    2070.81120        87.0872        17.2517       0.190117         1.0000         1.0000         0.0448
    2070.96360        87.0937        15.8620       0.187646         1.0000         1.0000         0.0641
    2071.11600        87.1003        15.8120       0.187554         1.0000         1.0000         0.0807
    2071.26840        87.1068        16.0322       0.187960         1.0000         1.0000         0.0315
    2071.42080        87.1134        16.5907       0.188967         1.0000         1.0000         0.0059
    2071.57320        87.1200        18.4773       0.192135         1.0000         1.0000         0.0020
    2071.72560        87.1265        19.7427       0.194083         1.0000         1.0000         0.0258
    2071.87800        87.1331        20.3993       0.195046         1.0000         1.0000         0.0505
    2072.03040        87.1396      -999.2500    -999.250000         0.0000      -999.2500         0.1215
    2072.18280        87.1462      -999.2500    -999.250000         0.0000      -999.2500         0.1989
    2072.33520        87.1527      -999.2500    -999.250000         0.0000      -999.2500         0.2646
    2072.48760        87.1593      -999.2500    -999.250000         0.0000      -999.2500         0.2646
    2072.64000        87.1658      -999.2500    -999.250000         0.0000      -999.2500         0.2646
    2072.79240        87.1724      -999.2500    -999.250000         0.0000      -999.2500         0.2646
    2072.94480        87.1789      -999.2500    -999.250000         0.0000      -999.2500         0.2646
    2073.09720        87.1855      -999.2500    -999.250000         0.0000      -999.2500         0.2646
    2073.24960        87.1920      -999.2500    -999.250000         0.0000      -999.2500         0.2646
    2073.40200        87.1986      -999.2500    -999.250000         0.0000      -999.2500         0.2646
    2073.55440        87.2051      -999.2500    -999.250000         0.0000      -999.2500         0.2646
    2073.70680        87.2117      -999.2500    -999.250000         0.0000      -999.2500         0.2646
    2073.85920        87.2182      -999.2500    -999.250000         0.0000      -999.2500         0.2646
    2074.01160        87.2248      -999.2500    -999.250000         0.0000      -999.2500         0.2646
    2074.16400        87.2314      -999.2500    -999.250000         0.0000      -999.2500         0.2646
    2074.31640        87.2379      -999.2500    -999.250000         0.0000      -999.2500         0.2646
    2074.46880        87.2445      -999.2500    -999.250000         0.0000      -999.2500         0.2646
    2074.62120        87.2510      -999.2500    -999.250000         0.0000      -999.2500         0.2646
    2074.77360        87.2576      -999.2500    -999.250000         0.0000      -999.2500         0.2646
    2074.92600        87.2641      -999.2500    -999.250000         0.0000      -999.2500         0.2646
    2075.07840        87.2707      -999.2500    -999.250000         0.0000      -999.2500         0.2646
    2075.23080        87.2772      -999.2500    -999.250000         0.0000      -999.2500         0.2646
    2075.38320        87.2838      -999.2500    -999.250000         0.0000      -999.2500         0.2646
    2075.53560        87.2903      -999.2500    -999.250000         0.0000      -999.2500         0.2646
    2075.68800        87.2969      -999.2500    -999.250000         0.0000      -999.2500         0.2646
    2075.84040        87.3034      -999.2500    -999.250000         0.0000      -999.2500         0.2646
    2075.99280        87.3100      -999.2500    -999.250000         0.0000      -999.2500         0.2646
    2076.14520        87.3165      -999.2500    -999.250000         0.0000      -999.2500         0.2646
    2076.29760        87.3231      -999.2500    -999.250000         0.0000      -999.2500         0.2646
    2076.45000        87.3297      -999.2500    -999.250000         0.0000      -999.2500         0.2646
    2076.60240        87.3362      -999.2500    -999.250000         0.0000      -999.2500         0.2646
    2076.75480        87.3428      -999.2500    -999.250000         0.0000      -999.2500         0.2646
    2076.90720        87.3493      -999.2500    -999.250000         0.0000      -999.2500         0.2646
