~Version Information Block
VERS .                 2.00:  CWLS LOG ASCII STANDARD - VERSION 2.00
WRAP .                   NO:  One line per depth step
~Well Information Block
#MNEM.UNIT        Data Type   Information
#---------- ----------------  -----------
STRT .M             0.00000:  START DEPTH
STOP .M          2091.69000:  STOP DEPTH
STEP .M             0.15240:  STEP
NULL .              -999.25:  NULL VALUE
COMP . Statoil Petroleum AS:  COMPANY
WELL .           NO_16/2-10:  WELL
FLD  .                     :  FIELD
LOC  .                     :  LOCATION
CTRY .                     :  COUNTRY
STAT .                     :  STATE
CNTY .                     :  COUNTY
API  .                     :  API NUMBER
UWI  .                     :  UNIQUE WELL ID
SRVC .                     :  SERVICE COMPANY
DATE .                     :  LOG DATE
~Curve Information Block
#MNEM.UNIT         API CODE   Curve Description
#---------- ----------------  -----------------
DEPTH.M                    :  
FTEMP.DEGC                 :  0.043*(TVDSS-115)+4
KLOGH.                     :  KLOGH
PHIT .V/V                  :  Limited apparent porosity
SAND .                     :  IFC((VSH<0.45&PHIT>0.12) 1 0)
SWT  .V/V                  :  Limited unflushed zone tot sat'n
VSH  .V/V                  :  Curve replaced from 1896.29 to 1896.64
~Parameter Information Block
#MNEM.UNIT            Value   Description
#---------- ----------------  -----------
SET  .                TOLT2:  
CUR_INT_BOT.             2310.384:  
~Other Information Block
#        DEPTH          FTEMP          KLOGH           PHIT           SAND            SWT            VSH 
~A
# ...
    2077.05960        87.3559      -999.2500    -999.250000         0.0000      -999.2500         0.2646
    2077.21200        87.3624      -999.2500    -999.250000         0.0000      -999.2500         0.2646
    2077.36440        87.3690      -999.2500    -999.250000         0.0000      -999.2500         0.2646
    2077.51680        87.3755      -999.2500    -999.250000         0.0000      -999.2500         0.2646
    2077.66920        87.3821      -999.2500    -999.250000         0.0000      -999.2500         0.2646
    2077.82160        87.3886      -999.2500    -999.250000         0.0000      -999.2500         0.2646
    2077.97400        87.3952      -999.2500    -999.250000         0.0000      -999.2500         0.2646
    2078.12640        87.4017      -999.2500    -999.250000         0.0000      -999.2500         0.2646
    2078.27880        87.4083      -999.2500    -999.250000         0.0000      -999.2500         0.2646
    2078.43120        87.4148      -999.2500    -999.250000         0.0000      -999.2500         0.2646
    2078.58360        87.4214      -999.2500    -999.250000         0.0000      -999.2500         0.2646
    2078.73600        87.4279      -999.2500    -999.250000         0.0000      -999.2500         0.2646
    2078.88840        87.4345      -999.2500    -999.250000         0.0000      -999.2500         0.2646
    2079.04080        87.4410      -999.2500    -999.250000         0.0000      -999.2500         0.2646
    2079.19320        87.4476      -999.2500    -999.250000         0.0000      -999.2500         0.2646
    2079.34560        87.4542      -999.2500    -999.250000         0.0000      -999.2500         0.2646
    2079.49800        87.4607      -999.2500    -999.250000         0.0000      -999.2500         0.2646
    2079.65040        87.4673      -999.2500    -999.250000         0.0000      -999.2500         0.2646
    2079.80280        87.4738      -999.2500    -999.250000         0.0000      -999.2500         0.2646
    2079.95520        87.4804      -999.2500    -999.250000         0.0000      -999.2500         0.2646
    2080.10760        87.4869      -999.2500    -999.250000         0.0000      -999.2500         0.2646
    2080.26000        87.4935      -999.2500    -999.250000         0.0000      -999.2500         0.2646
    2080.41240        87.5000      -999.2500    -999.250000         0.0000      -999.2500         0.2646
    2080.56480        87.5066      -999.2500    -999.250000         0.0000      -999.2500         0.2646
    2080.71720        87.5131      -999.2500    -999.250000         0.0000      -999.2500         0.2646
    2080.86960        87.5197      -999.2500    -999.250000         0.0000      -999.2500         0.2646
    2081.02200        87.5262      -999.2500    -999.250000         0.0000      -999.2500         0.2646
    2081.17440        87.5328      -999.2500    -999.250000         0.0000      -999.2500         0.2646
    2081.32680        87.5394      -999.2500    -999.250000         0.0000      -999.2500         0.2646
    2081.47920        87.5459      -999.2500    -999.250000         0.0000      -999.2500         0.2646
    2081.63160        87.5525      -999.2500    -999.250000         0.0000      -999.2500         0.2646
    2081.78400        87.5590      -999.2500    -999.250000         0.0000      -999.2500         0.2646
    2081.93640        87.5656      -999.2500    -999.250000         0.0000      -999.2500         0.2646
    2082.08880        87.5721      -999.2500    -999.250000         0.0000      -999.2500         0.2646
    2082.24120        87.5787      -999.2500    -999.250000         0.0000      -999.2500         0.2646
    2082.39360        87.5852      -999.2500    -999.250000         0.0000      -999.2500         0.2646
    2082.54600        87.5918      -999.2500    -999.250000         0.0000      -999.2500         0.2646
    2082.69840        87.5983      -999.2500    -999.250000         0.0000      -999.2500         0.2646
    2082.85080        87.6049      -999.2500    -999.250000         0.0000      -999.2500         0.2646
    2083.00320        87.6114      -999.2500    -999.250000         0.0000      -999.2500         0.2646
    2083.15560        87.6180      -999.2500    -999.250000         0.0000      -999.2500         0.2646
    2083.30800        87.6245      -999.2500    -999.250000         0.0000      -999.2500         0.2646
    2083.46040        87.6311      -999.2500    -999.250000         0.0000      -999.2500         0.2646
    2083.61280        87.6376      -999.2500    -999.250000         0.0000      -999.2500         0.2646
    2083.76520        87.6442      -999.2500    -999.250000         0.0000      -999.2500         0.2646
    2083.91760        87.6507      -999.2500    -999.250000         0.0000      -999.2500         0.2646
    2084.07000        87.6573      -999.2500    -999.250000         0.0000      -999.2500         0.2646
    2084.22240        87.6638      -999.2500    -999.250000         0.0000      -999.2500         0.2646
    2084.37480        87.6704      -999.2500    -999.250000         0.0000      -999.2500         0.2646
    2084.52720        87.6770      -999.2500    -999.250000         0.0000      -999.2500         0.2646
    2084.67960        87.6835      -999.2500    -999.250000         0.0000      -999.2500         0.2646
    2084.83200        87.6901      -999.2500    -999.250000         0.0000      -999.2500         0.2646
    2084.98440        87.6966      -999.2500    -999.250000         0.0000      -999.2500         0.2646
    2085.13680        87.7032      -999.2500    -999.250000         0.0000      -999.2500         0.2646
    2085.28920        87.7097      -999.2500    -999.250000         0.0000      -999.2500         0.2646
    2085.44160        87.7163      -999.2500    -999.250000         0.0000      -999.2500         0.2646
    2085.59400        87.7228      -999.2500    -999.250000         0.0000      -999.2500         0.2646
    2085.74640        87.7294      -999.2500    -999.250000         0.0000      -999.2500         0.2646
    2085.89880        87.7359      -999.2500    -999.250000         0.0000         1.0000         0.2646
    2086.05120        87.7425      -999.2500    -999.250000         0.0000         1.0000         0.2646
    2086.20360        87.7490      -999.2500    -999.250000         0.0000         1.0000         0.2646
    2086.35600        87.7556      -999.2500    -999.250000         0.0000         1.0000         0.2646
    2086.50840        87.7622      -999.2500    -999.250000         0.0000         1.0000         0.2646
    2086.66080        87.7687      -999.2500    -999.250000         0.0000         1.0000         0.2646
    2086.81320        87.7753      -999.2500    -999.250000         0.0000         1.0000         0.2646
    2086.96560        87.7818      -999.2500    -999.250000         0.0000         1.0000         0.2646
    2087.11800        87.7884      -999.2500    -999.250000         0.0000         1.0000         0.2646
    2087.27040        87.7949      -999.2500    -999.250000         0.0000         1.0000         0.2646
    2087.42280        87.8015      -999.2500    -999.250000         0.0000         1.0000         0.2646
    2087.57520        87.8080      -999.2500    -999.250000         0.0000         1.0000         0.2646
    2087.72760        87.8146      -999.2500    -999.250000         0.0000         1.0000         0.2646
    2087.88000        87.8211      -999.2500    -999.250000         0.0000         1.0000         0.2646
    2088.03240        87.8277      -999.2500    -999.250000         0.0000         1.0000         0.2646
    2088.18480        87.8342      -999.2500    -999.250000         0.0000         1.0000         0.2646
    2088.33720        87.8408      -999.2500    -999.250000         0.0000         1.0000         0.2646
    2088.48960        87.8473      -999.2500    -999.250000         0.0000         1.0000         0.2646
    2088.64200        87.8539      -999.2500    -999.250000         0.0000         1.0000         0.2646
