~Version Information Block
VERS .                 2.00:  CWLS LOG ASCII STANDARD - VERSION 2.00
WRAP .                   NO:  One line per depth step
~Well Information Block
#MNEM.UNIT        Data Type   Information
#---------- ----------------  -----------
STRT .M             0.00000:  START DEPTH
STOP .M          2091.69000:  STOP DEPTH
STEP .M             0.15240:  STEP
NULL .              -999.25:  NULL VALUE
COMP . Statoil Petroleum AS:  COMPANY
WELL .           NO_16/2-10:  WELL
FLD  .                     :  FIELD
LOC  .                     :  LOCATION
CTRY .                     :  COUNTRY
STAT .                     :  STATE
CNTY .                     :  COUNTY
API  .                     :  API NUMBER
UWI  .                     :  UNIQUE WELL ID
SRVC .                     :  SERVICE COMPANY
DATE .                     :  LOG DATE
~Curve Information Block
#MNEM.UNIT         API CODE   Curve Description
#---------- ----------------  -----------------
DEPTH.M                    :  
FTEMP.DEGC                 :  0.043*(TVDSS-115)+4
KLOGH.                     :  KLOGH
PHIT .V/V                  :  Limited apparent porosity
SAND .                     :  IFC((VSH<0.45&PHIT>0.12) 1 0)
SWT  .V/V                  :  Limited unflushed zone tot sat'n
VSH  .V/V                  :  Curve replaced from 1896.29 to 1896.64
~Parameter Information Block
#MNEM.UNIT            Value   Description
#---------- ----------------  -----------
SET  .                TOLT2:  
CUR_INT_BOT.             2310.384:  
~Other Information Block
#        DEPTH          FTEMP          KLOGH           PHIT           SAND            SWT            VSH 
~A
# ...
    1901.03760        79.7873     21118.1035       0.315777         1.0000         0.0537         0.0867
    1901.19000        79.7938     20667.5508       0.312762         1.0000         0.0514         0.0689
    1901.34240        79.8004     19582.6816       0.305224         1.0000         0.0566         0.0886
    1901.49480        79.8069     19539.1484       0.304913         1.0000         0.0617         0.0567
    1901.64720        79.8135     19697.8809       0.306044         1.0000         0.0582         0.0893
    1901.79960        79.8200     19918.1113       0.307598         1.0000         0.0560         0.0868
    1901.95200        79.8266     19252.3105       0.302845         1.0000         0.0527         0.0991
    1902.10440        79.8331     18825.0801       0.299708         1.0000         0.0683         0.0548
    1902.25680        79.8397     18946.1348       0.300604         1.0000         0.0691         0.0499
    1902.40920        79.8463     20027.5879       0.308364         1.0000         0.0536         0.0204
    1902.56160        79.8528     20656.3633       0.312686         1.0000         0.0465         0.0598
    1902.71400        79.8594     20501.2773       0.311633         1.0000         0.0423         0.0376
    1902.86640        79.8659     19965.1914       0.307928         1.0000         0.0470         0.0965
    1903.01880        79.8725     20241.5410       0.309850         1.0000         0.0445         0.0646
    1903.17120        79.8790     21594.6895       0.318897         1.0000         0.0355         0.1039
    1903.32360        79.8856     21990.1289       0.321434         1.0000         0.0329         0.0793
    1903.47600        79.8921     21480.1172       0.318153         1.0000         0.0382         0.0695
    1903.62840        79.8987     20426.6113       0.311122         1.0000         0.0398         0.0402
    1903.78080        79.9052     20395.1309       0.310907         1.0000         0.0394         0.0205
    1903.93320        79.9118     20121.1641       0.309016         1.0000         0.0385         0.0572
    1904.08560        79.9183     19790.1094       0.306697         1.0000         0.0370         0.0621
    1904.23800        79.9249     19435.9922       0.304173         1.0000         0.0370         0.0000
    1904.39040        79.9314     20169.0078       0.309348         1.0000         0.0362         0.0000
    1904.54280        79.9380     20731.1270       0.313191         1.0000         0.0354         0.0000
    1904.69520        79.9445     21013.7637       0.315084         1.0000         0.0349         0.0000
    1904.84760        79.9511     20763.7812       0.313411         1.0000         0.0365         0.0000
    1905.00000        79.9576     20505.7520       0.311663         1.0000         0.0367         0.0000
    1905.15240        79.9642     20039.3926       0.308447         1.0000         0.0366         0.0000
    1905.30480        79.9708     20070.5195       0.308664         1.0000         0.0358         0.0057
    1905.45720        79.9773     20215.9512       0.309673         1.0000         0.0347         0.0278
    1905.60960        79.9839     20503.0215       0.311644         1.0000         0.0345         0.0000
    1905.76200        79.9904     20441.3301       0.311223         1.0000         0.0347         0.0061
    1905.91440        79.9970     20448.3809       0.311271         1.0000         0.0348         0.0000
    1906.06680        80.0035     20105.4453       0.308907         1.0000         0.0347         0.0183
    1906.21920        80.0101     19359.9219       0.303624         1.0000         0.0343         0.0000
    1906.37160        80.0166     19149.1211       0.302094         1.0000         0.0366         0.0000
    1906.52400        80.0232     19921.3301       0.307621         1.0000         0.0364         0.0097
    1906.67640        80.0297     20767.7695       0.313438         1.0000         0.0366         0.0564
    1906.82880        80.0363     20731.2383       0.313192         1.0000         0.0402         0.0597
    1906.98120        80.0428     17625.8242       0.290505         1.0000         0.0472         0.0000
    1907.13360        80.0494     13838.0068       0.256680         1.0000         0.0663         0.0000
    1907.28600        80.0559     11546.9336       0.231376         1.0000         0.0613         0.0000
    1907.43840        80.0625     11305.2812       0.228419         1.0000         0.0472         0.0000
    1907.59080        80.0690     11883.0859       0.235387         1.0000         0.0573         0.0000
    1907.74320        80.0756     12165.4570       0.238671         1.0000         0.0486         0.0000
    1907.89560        80.0822     13387.4082       0.252052         1.0000         0.0539         0.0000
    1908.04800        80.0887     15506.1807       0.272592         1.0000         0.0515         0.0000
    1908.20040        80.0953     18203.5215       0.295014         1.0000         0.0455         0.0072
    1908.35280        80.1018     19872.5742       0.307278         1.0000         0.0403         0.0685
    1908.50520        80.1084     21234.7559       0.316547         1.0000         0.0362         0.0572
    1908.65760        80.1149     22268.1211       0.323190         1.0000         0.0332         0.0625
    1908.81000        80.1215     21716.6035       0.319684         1.0000         0.0315         0.0330
    1908.96240        80.1280     17500.5957       0.289508         1.0000         0.0292         0.0281
    1909.11480        80.1346     13783.3066       0.256126         1.0000         0.0291         0.0490
    1909.26720        80.1411     11918.7285       0.235806         1.0000         0.0251         0.0614
    1909.41960        80.1477     13001.7158       0.247965         1.0000         0.0257         0.0663
    1909.57200        80.1542     15208.9023       0.269886         1.0000         0.0413         0.0474
    1909.72440        80.1608     17329.6992       0.288136         1.0000         0.0533         0.0323
    1909.87680        80.1673     18719.3984       0.298921         1.0000         0.0595         0.0028
    1910.02920        80.1739     17540.2148       0.289824         1.0000         0.0713         0.0000
    1910.18160        80.1804     13400.8848       0.252193         1.0000         0.0947         0.0000
    1910.33400        80.1870      8779.5938       0.193071         1.0000         0.1252         0.0000
    1910.48640        80.1935      5722.3789       0.133228         1.0000         0.1762         0.0000
    1910.63880        80.2001      4807.7954       0.108882         0.0000         0.1177         0.0000
    1910.79120        80.2066      5508.6616       0.127907         1.0000         0.0393         0.0000
    1910.94360        80.2132      8165.1978       0.182928         1.0000         0.0314         0.0000
    1911.09600        80.2198     12864.6943       0.246484         1.0000         0.0244         0.0000
    1911.24840        80.2263     17041.8906       0.285795         1.0000         0.0325         0.0000
    1911.40080        80.2329     17973.2285       0.293234         1.0000         0.0587         0.0523
    1911.55320        80.2394     15790.9727       0.275137         1.0000         0.0663         0.1300
    1911.70560        80.2460     13882.3164       0.257127         1.0000         0.0610         0.1226
    1911.85800        80.2525     13089.2100       0.248903         1.0000         0.0575         0.0490
    1912.01040        80.2591     13571.7324       0.253964         1.0000         0.0544         0.0000
    1912.16280        80.2656     14931.8857       0.267316         1.0000         0.0629         0.0000
    1912.31520        80.2722     13747.0527       0.255758         1.0000         0.0981         0.0081
    1912.46760        80.2787     10039.2852       0.211815         1.0000         0.0928         0.0000
    1912.62000        80.2853      6303.6362       0.146753         1.0000         0.0532         0.0000
