~Version Information Block
VERS .                 2.00:  CWLS LOG ASCII STANDARD - VERSION 2.00
WRAP .                   NO:  One line per depth step
~Well Information Block
#MNEM.UNIT        Data Type   Information
#---------- ----------------  -----------
STRT .M             0.00000:  START DEPTH
STOP .M          2091.69000:  STOP DEPTH
STEP .M             0.15240:  STEP
NULL .              -999.25:  NULL VALUE
COMP . Statoil Petroleum AS:  COMPANY
WELL .           NO_16/2-10:  WELL
FLD  .                     :  FIELD
LOC  .                     :  LOCATION
CTRY .                     :  COUNTRY
STAT .                     :  STATE
CNTY .                     :  COUNTY
API  .                     :  API NUMBER
UWI  .                     :  UNIQUE WELL ID
SRVC .                     :  SERVICE COMPANY
DATE .                     :  LOG DATE
~Curve Information Block
#MNEM.UNIT         API CODE   Curve Description
#---------- ----------------  -----------------
DEPTH.M                    :  
FTEMP.DEGC                 :  0.043*(TVDSS-115)+4
KLOGH.                     :  KLOGH
PHIT .V/V                  :  Limited apparent porosity
SAND .                     :  IFC((VSH<0.45&PHIT>0.12) 1 0)
SWT  .V/V                  :  Limited unflushed zone tot sat'n
VSH  .V/V                  :  Curve replaced from 1896.29 to 1896.64
~Parameter Information Block
#MNEM.UNIT            Value   Description
#---------- ----------------  -----------
SET  .                TOLT2:  
CUR_INT_BOT.             2310.384:  
~Other Information Block
#        DEPTH          FTEMP          KLOGH           PHIT           SAND            SWT            VSH 
~A
# ...
    1924.50720        80.7964      4086.1814       0.366948         1.0000         0.1667         0.1160
    1924.65960        80.8030      4870.3457       0.386934         1.0000         0.1362         0.0009
    1924.81200        80.8095      5269.2617       0.395896         1.0000         0.1219         0.0000
    1924.96440        80.8161      5374.9575       0.398157         1.0000         0.1144         0.0000
    1925.11680        80.8226      5490.9409       0.400587         1.0000         0.1161         0.0000
    1925.26920        80.8292      5386.4741       0.398401         1.0000         0.1258         0.0000
    1925.42160        80.8357      5154.9946       0.393400         1.0000         0.1678         0.0000
    1925.57400        80.8423      4876.1323       0.387069         1.0000         0.1754         0.0175
    1925.72640        80.8488      4760.7856       0.384344         1.0000         0.1582         0.0044
    1925.87880        80.8554      4740.9761       0.383869         1.0000         0.1544         0.0290
    1926.03120        80.8619      4693.4497       0.382722         1.0000         0.1383         0.0132
    1926.18360        80.8685      4745.1929       0.383970         1.0000         0.1219         0.0158
    1926.33600        80.8750      4862.4189       0.386748         1.0000         0.1206         0.0126
    1926.48840        80.8816      5022.6401       0.390439         1.0000         0.1058         0.0000
    1926.64080        80.8881      5055.5322       0.391182         1.0000         0.1060         0.0000
    1926.79320        80.8947      4842.6606       0.386285         1.0000         0.1105         0.0000
    1926.94560        80.9012      4711.2812       0.383154         1.0000         0.1148         0.0000
    1927.09800        80.9078      4693.8232       0.382731         1.0000         0.1200         0.0000
    1927.25040        80.9144      4990.2812       0.389703         1.0000         0.1181         0.0000
    1927.40280        80.9209      5123.9580       0.392713         1.0000         0.1195         0.0000
    1927.55520        80.9275      4963.9370       0.389101         1.0000         0.1227         0.0000
    1927.70760        80.9340      4677.7710       0.382341         1.0000         0.1292         0.0000
    1927.86000        80.9406      4600.1616       0.380436         1.0000         0.1330         0.0000
    1928.01240        80.9471      4881.3779       0.387191         1.0000         0.1268         0.0000
    1928.16480        80.9537      5183.8550       0.394036         1.0000         0.1266         0.0000
    1928.31720        80.9602      5290.7607       0.396360         1.0000         0.1264         0.0000
    1928.46960        80.9668      5152.3452       0.393342         1.0000         0.1542         0.0000
    1928.62200        80.9733      4932.4180       0.388376         1.0000         0.1606         0.0000
    1928.77440        80.9799      4680.7417       0.382413         1.0000         0.1521         0.0000
    1928.92680        80.9864      4337.5664       0.373745         1.0000         0.1488         0.0000
    1929.07920        80.9930      4168.7749       0.369226         1.0000         0.1506         0.0000
    1929.23160        80.9995      4247.6943       0.371361         1.0000         0.1256         0.0000
    1929.38400        81.0061      4445.8843       0.376553         1.0000         0.1059         0.0000
    1929.53640        81.0126      4620.1187       0.380929         1.0000         0.1083         0.0000
    1929.68880        81.0192      4745.7256       0.383983         1.0000         0.1105         0.0000
    1929.84120        81.0257      4861.4517       0.386726         1.0000         0.0951         0.0000
    1929.99360        81.0323      4805.5605       0.385409         1.0000         0.1141         0.0000
    1930.14600        81.0388      4747.9302       0.384036         1.0000         0.1472         0.0000
    1930.29840        81.0454      4558.9199       0.379411         1.0000         0.2787         0.0000
    1930.45080        81.0520      3881.0457       0.361085         1.0000         0.3391         0.0441
    1930.60320        81.0585      2659.4663       0.318055         1.0000         0.4003         0.2064
    1930.75560        81.0651      1909.6813       0.280352         0.0000         0.4406         0.5030
    1930.90800        81.0716      1556.3933       0.257064         0.0000         0.4199         0.8004
    1931.06040        81.0782      1385.5802       0.243829         0.0000         0.5191         1.0000
    1931.21280        81.0847      1093.9198       0.216923         0.0000         0.5647         1.0000
    1931.36520        81.0913       874.0913       0.191383         0.0000         0.5541         1.0000
    1931.51760        81.0978       788.6871       0.179679         0.0000         0.5776         1.0000
    1931.67000        81.1044       779.4647       0.178340         0.0000         0.5769         0.9835
    1931.82240        81.1109       802.6279       0.181673         0.0000         0.5959         0.9556
    1931.97480        81.1175       802.4933       0.181654         0.0000         0.6000         0.9584
    1932.12720        81.1240       820.4016       0.184167         0.0000         0.5814         0.9056
    1932.27960        81.1306       776.0029       0.177833         0.0000         0.6068         0.9111
    1932.43200        81.1371       744.9787       0.173188         0.0000         0.6140         0.9442
    1932.58440        81.1437       718.6252       0.169088         0.0000         0.6098         0.9470
    1932.73680        81.1502       741.8809       0.172714         0.0000         0.5969         0.9306
    1932.88920        81.1568       899.2028       0.194608         0.0000         0.5358         0.8752
    1933.04160        81.1633      1340.0685       0.240027         0.0000         0.4880         0.7529
    1933.19400        81.1699      2052.5706       0.288566         0.0000         0.3570         0.5580
    1933.34640        81.1765      2521.0525       0.311970         1.0000         0.3351         0.3855
    1933.49880        81.1830      2252.9504       0.299170         1.0000         0.3228         0.2546
    1933.65120        81.1896      2028.3783       0.287216         1.0000         0.3187         0.1793
    1933.80360        81.1961      2069.3689       0.289494         1.0000         0.3105         0.1849
    1933.95600        81.2027      2487.5593       0.310448         1.0000         0.2634         0.3407
    1934.10840        81.2092      3016.0818       0.332380         0.0000         0.2456         0.5799
    1934.26080        81.2158      3649.0845       0.354069         0.0000         0.1953         0.5879
    1934.41320        81.2223      4164.2886       0.369104         1.0000         0.1993         0.4126
    1934.56560        81.2289      4279.6670       0.372215         1.0000         0.2037         0.1236
    1934.71800        81.2354      3991.0352       0.364266         1.0000         0.2188         0.0611
    1934.87040        81.2420      3659.4592       0.354392         1.0000         0.2491         0.1251
    1935.02280        81.2485      3426.5359       0.346905         1.0000         0.2564         0.0860
    1935.17520        81.2551      3363.8716       0.344804         1.0000         0.1931         0.0125
    1935.32760        81.2616      3362.0703       0.344743         1.0000         0.1740         0.0000
    1935.48000        81.2682      3324.1064       0.343450         1.0000         0.1973         0.0000
    1935.63240        81.2747      3101.3640       0.335554         1.0000         0.1880         0.0000
    1935.78480        81.2813      2972.9028       0.330738         1.0000         0.2091         0.0000
    1935.93720        81.2878      2833.5305       0.325272         1.0000         0.1854         0.0000
    1936.08960        81.2944      2769.0623       0.322652         1.0000         0.2040         0.0000
