~Version Information Block
VERS .                 2.00:  CWLS LOG ASCII STANDARD - VERSION 2.00
WRAP .                   NO:  One line per depth step
~Well Information Block
#MNEM.UNIT        Data Type   Information
#---------- ----------------  -----------
STRT .M             0.00000:  START DEPTH
STOP .M          2091.69000:  STOP DEPTH
STEP .M             0.15240:  STEP
NULL .              -999.25:  NULL VALUE
COMP . Statoil Petroleum AS:  COMPANY
WELL .           NO_16/2-10:  WELL
FLD  .                     :  FIELD
LOC  .                     :  LOCATION
CTRY .                     :  COUNTRY
STAT .                     :  STATE
CNTY .                     :  COUNTY
API  .                     :  API NUMBER
UWI  .                     :  UNIQUE WELL ID
SRVC .                     :  SERVICE COMPANY
DATE .                     :  LOG DATE
~Curve Information Block
#MNEM.UNIT         API CODE   Curve Description
#---------- ----------------  -----------------
DEPTH.M                    :  
FTEMP.DEGC                 :  0.043*(TVDSS-115)+4
KLOGH.                     :  KLOGH
PHIT .V/V                  :  Limited apparent porosity
SAND .                     :  IFC((VSH<0.45&PHIT>0.12) 1 0)
SWT  .V/V                  :  Limited unflushed zone tot sat'n
VSH  .V/V                  :  Curve replaced from 1896.29 to 1896.64
~Parameter Information Block
#MNEM.UNIT            Value   Description
#---------- ----------------  -----------
SET  .                TOLT2:  
CUR_INT_BOT.             2310.384:  
~Other Information Block
#        DEPTH          FTEMP          KLOGH           PHIT           SAND            SWT            VSH 
~A
# ...
    2041.85520        85.8421        27.6657       0.204007         1.0000         1.0000         0.0989
    2042.00760        85.8487        30.5345       0.206909         1.0000         0.9947         0.1861
    2042.16000        85.8552        25.3787       0.201470         1.0000         0.9814         0.1443
    2042.31240        85.8618        22.9574       0.198520         1.0000         0.9916         0.1156
    2042.46480        85.8683        23.0606       0.198652         1.0000         1.0000         0.0622
    2042.61720        85.8749        25.9140       0.202083         1.0000         1.0000         0.0858
    2042.76960        85.8814        24.2525       0.200135         1.0000         1.0000         0.1039
    2042.92200        85.8880        20.7995       0.195617         1.0000         1.0000         0.0741
    2043.07440        85.8945        22.0397       0.197321         1.0000         1.0000         0.0532
    2043.22680        85.9011        28.2924       0.204666         1.0000         0.9975         0.0949
    2043.37920        85.9076        33.3265       0.209483         1.0000         1.0000         0.1277
    2043.53160        85.9142        28.6373       0.205022         1.0000         0.9885         0.0963
    2043.68400        85.9208        19.1270       0.193152         1.0000         0.9174         0.0830
    2043.83640        85.9273        11.6347       0.178530         1.0000         1.0000         0.0698
    2043.98880        85.9339         7.5000       0.165616         1.0000         1.0000         0.1428
    2044.14120        85.9404         5.6959       0.157523         1.0000         1.0000         0.1144
    2044.29360        85.9470         5.2708       0.155242         1.0000         1.0000         0.1490
    2044.44600        85.9535         6.5253       0.161521         1.0000         1.0000         0.1542
    2044.59840        85.9601         8.6606       0.169848         1.0000         1.0000         0.1655
    2044.75080        85.9666        11.8999       0.179193         1.0000         1.0000         0.1909
    2044.90320        85.9732        12.1393       0.179779         1.0000         1.0000         0.1957
    2045.05560        85.9797        12.7573       0.181240         1.0000         1.0000         0.1883
    2045.20800        85.9863        13.3982       0.182682         1.0000         1.0000         0.1622
    2045.36040        85.9928        15.3832       0.186745         1.0000         1.0000         0.1794
    2045.51280        85.9994        14.6371       0.185283         1.0000         1.0000         0.1376
    2045.66520        86.0059        13.4402       0.182774         1.0000         1.0000         0.0939
    2045.81760        86.0125        10.7740       0.176270         1.0000         1.0000         0.1061
    2045.97000        86.0191         9.7271       0.173264         1.0000         1.0000         0.1773
    2046.12240        86.0256         9.3901       0.172227         1.0000         1.0000         0.1823
    2046.27480        86.0322        12.8655       0.181488         1.0000         1.0000         0.1654
    2046.42720        86.0387        15.9677       0.187842         1.0000         1.0000         0.1558
    2046.57960        86.0453        16.0030       0.187907         1.0000         0.9528         0.1655
    2046.73200        86.0518        11.2179       0.177458         1.0000         0.9674         0.0984
    2046.88440        86.0584         7.9677       0.167395         1.0000         1.0000         0.1371
    2047.03680        86.0649         6.3966       0.160936         1.0000         1.0000         0.0622
    2047.18920        86.0715         6.8826       0.163089         1.0000         1.0000         0.0596
    2047.34160        86.0780         8.3793       0.168877         1.0000         1.0000         0.0320
    2047.49400        86.0846        11.1356       0.177241         1.0000         1.0000         0.0600
    2047.64640        86.0911        12.9605       0.181705         1.0000         1.0000         0.0487
    2047.79880        86.0977        13.7955       0.183541         1.0000         1.0000         0.0000
    2047.95120        86.1042        14.7261       0.185461         1.0000         1.0000         0.0182
    2048.10360        86.1108        19.0197       0.192986         1.0000         1.0000         0.0405
    2048.25600        86.1173        31.4783       0.207805         1.0000         0.8932         0.0690
    2048.40840        86.1239        33.0487       0.209236         1.0000         0.9029         0.0764
    2048.56080        86.1305        18.5402       0.192235         1.0000         0.9686         0.1459
    2048.71320        86.1370         8.7611       0.170187         1.0000         1.0000         0.1515
    2048.86560        86.1436         6.0731       0.159409         1.0000         1.0000         0.1676
    2049.01800        86.1501         7.0642       0.163856         1.0000         1.0000         0.1147
    2049.17040        86.1567         8.4856       0.169248         1.0000         1.0000         0.1678
    2049.32280        86.1632         9.7358       0.173290         1.0000         1.0000         0.1073
    2049.47520        86.1698        10.5677       0.175701         1.0000         1.0000         0.1321
    2049.62760        86.1763        10.8404       0.176451         1.0000         1.0000         0.0879
    2049.78000        86.1829        12.5448       0.180746         1.0000         1.0000         0.1406
    2049.93240        86.1894        13.4723       0.182844         1.0000         1.0000         0.0780
    2050.08480        86.1960        12.2219       0.179979         1.0000         1.0000         0.0935
    2050.23720        86.2025         8.7550       0.170167         1.0000         1.0000         0.1746
    2050.38960        86.2091         5.2603       0.155183         1.0000         1.0000         0.3232
    2050.54200        86.2156         3.1525       0.140125         1.0000         1.0000         0.3312
    2050.69440        86.2222         2.4865       0.133145         1.0000         1.0000         0.2789
    2050.84680        86.2288         2.8614       0.137275         1.0000         1.0000         0.2269
    2050.99920        86.2353         4.3006       0.149259         1.0000         1.0000         0.2372
    2051.15160        86.2419         5.4144       0.156032         1.0000         1.0000         0.1813
    2051.30400        86.2484         4.7787       0.152359         1.0000         1.0000         0.1395
    2051.45640        86.2550         3.5072       0.143260         1.0000         1.0000         0.1771
    2051.60880        86.2615         2.4453       0.132653         1.0000         1.0000         0.2091
    2051.76120        86.2681         2.5147       0.133477         1.0000         1.0000         0.2950
    2051.91360        86.2746         2.6075       0.134542         1.0000         1.0000         0.2264
    2052.06600        86.2812         3.2393       0.140923         1.0000         1.0000         0.2658
    2052.21840        86.2877         3.7798       0.145462         1.0000         1.0000         0.1950
    2052.37080        86.2943         3.8602       0.146081         1.0000         1.0000         0.1950
    2052.52320        86.3008         3.4638       0.142894         1.0000         1.0000         0.1359
    2052.67560        86.3074         3.0561       0.139211         1.0000         1.0000         0.1520
    2052.82800        86.3139         3.4556       0.142825         1.0000         1.0000         0.1513
    2052.98040        86.3205         4.2076       0.148616         1.0000         1.0000         0.2218
    2053.13280        86.3270         4.6351       0.151462         1.0000         1.0000         0.2710
    2053.28520        86.3336         4.4342       0.150158         1.0000         1.0000         0.2962
    2053.43760        86.3401         4.7360       0.152095         1.0000         1.0000         0.2407
