~Version Information Block
VERS .                 2.00:  CWLS LOG ASCII STANDARD - VERSION 2.00
WRAP .                   NO:  One line per depth step
~Well Information Block
#MNEM.UNIT        Data Type   Information
#---------- ----------------  -----------
STRT .M             0.00000:  START DEPTH
STOP .M          2091.69000:  STOP DEPTH
STEP .M             0.15240:  STEP
NULL .              -999.25:  NULL VALUE
COMP . Statoil Petroleum AS:  COMPANY
WELL .           NO_16/2-10:  WELL
FLD  .                     :  FIELD
LOC  .                     :  LOCATION
CTRY .                     :  COUNTRY
STAT .                     :  STATE
CNTY .                     :  COUNTY
API  .                     :  API NUMBER
UWI  .                     :  UNIQUE WELL ID
SRVC .                     :  SERVICE COMPANY
DATE .                     :  LOG DATE
~Curve Information Block
#MNEM.UNIT         API CODE   Curve Description
#---------- ----------------  -----------------
DEPTH.M                    :  
FTEMP.DEGC                 :  0.043*(TVDSS-115)+4
KLOGH.                     :  KLOGH
PHIT .V/V                  :  Limited apparent porosity
SAND .                     :  IFC((VSH<0.45&PHIT>0.12) 1 0)
SWT  .V/V                  :  Limited unflushed zone tot sat'n
VSH  .V/V                  :  Curve replaced from 1896.29 to 1896.64
~Parameter Information Block
#MNEM.UNIT            Value   Description
#---------- ----------------  -----------
SET  .                TOLT2:  
CUR_INT_BOT.             2310.384:  
~Other Information Block
#        DEPTH          FTEMP          KLOGH           PHIT           SAND            SWT            VSH 
~A
# ...
    1889.30280        79.2827      -999.2500    -999.250000      -999.2500         1.0000         0.1600
    1889.45520        79.2893      -999.2500    -999.250000      -999.2500         1.0000         0.1425
    1889.60760        79.2958      -999.2500    -999.250000      -999.2500         1.0000         0.1251
    1889.76000        79.3024      -999.2500    -999.250000      -999.2500         1.0000         0.1076
    1889.91240        79.3089      -999.2500    -999.250000      -999.2500         1.0000         0.1076
    1890.06480        79.3155      -999.2500    -999.250000      -999.2500         1.0000         0.1240
    1890.21720        79.3220      -999.2500    -999.250000      -999.2500         1.0000         0.1405
    1890.36960        79.3286      -999.2500    -999.250000      -999.2500         1.0000         0.1569
    1890.52200        79.3351      -999.2500    -999.250000      -999.2500         1.0000         0.1733
    1890.67440        79.3417      -999.2500    -999.250000      -999.2500         1.0000         0.1898
    1890.82680        79.3483      -999.2500    -999.250000      -999.2500         1.0000         0.2111
    1890.97920        79.3548      -999.2500    -999.250000      -999.2500         1.0000         0.2333
    1891.13160        79.3614      -999.2500    -999.250000      -999.2500         1.0000         0.2556
    1891.28400        79.3679      -999.2500    -999.250000      -999.2500         1.0000         0.2778
    1891.43640        79.3745      -999.2500    -999.250000      -999.2500         1.0000         0.3000
    1891.58880        79.3810      -999.2500    -999.250000      -999.2500         1.0000         0.3222
    1891.74120        79.3876      -999.2500    -999.250000      -999.2500         1.0000         0.3445
    1891.89360        79.3941      -999.2500    -999.250000      -999.2500         1.0000         0.3667
    1892.04600        79.4007      5229.7622       0.120643         1.0000         0.7193         0.4224
    1892.19840        79.4072      4563.6230       0.101595         0.0000         0.6207         0.4840
    1892.35080        79.4138      4969.9331       0.113519         0.0000         0.5524         0.4974
    1892.50320        79.4203      5624.8506       0.130825         0.0000         0.4551         0.4650
    1892.65560        79.4269      6543.0156       0.151964         1.0000         0.4397         0.4327
    1892.80800        79.4334      8084.7842       0.181544         1.0000         0.4008         0.2396
    1892.96040        79.4400      9864.7910       0.209364         1.0000         0.3492         0.1908
    1893.11280        79.4465     11925.4561       0.235885         1.0000         0.2675         0.1695
    1893.26520        79.4531     14465.3711       0.262879         1.0000         0.1434         0.1582
    1893.41760        79.4596     16574.3262       0.281906         1.0000         0.1006         0.1469
    1893.57000        79.4662     17500.6699       0.289509         1.0000         0.0842         0.1393
    1893.72240        79.4727     16847.1543       0.284188         1.0000         0.0835         0.1351
    1893.87480        79.4793     16570.9062       0.281877         1.0000         0.0774         0.1308
    1894.02720        79.4858     16743.6738       0.283327         1.0000         0.0717         0.1266
    1894.17960        79.4924     17069.6465       0.286022         1.0000         0.0799         0.1245
    1894.33200        79.4990     16675.6309       0.282758         1.0000         0.0904         0.1245
    1894.48440        79.5055     15837.5596       0.275549         1.0000         0.1048         0.1345
    1894.63680        79.5121     14874.6621       0.266779         1.0000         0.1203         0.1462
    1894.78920        79.5186     14381.9355       0.262070         1.0000         0.1171         0.1579
    1894.94160        79.5252     13616.3477       0.254422         1.0000         0.1209         0.1696
    1895.09400        79.5317     13359.3105       0.251758         1.0000         0.1263         0.1721
    1895.24640        79.5383     13463.3369       0.252843         1.0000         0.1053         0.1577
    1895.39880        79.5448     15094.8438       0.268834         1.0000         0.0747         0.1330
    1895.55120        79.5514     16580.3867       0.281957         1.0000         0.0653         0.1330
    1895.70360        79.5579     16798.7168       0.283786         1.0000         0.0708         0.1330
    1895.85600        79.5645     15416.7422       0.271784         1.0000         0.0810         0.1384
    1896.00840        79.5710     14187.6152       0.260168         1.0000         0.0789         0.1447
    1896.16080        79.5776     14032.6865       0.258633         1.0000         0.0752         0.1511
    1896.31320        79.5841     14461.4248       0.262841         1.0000         0.0684         0.1512
    1896.46560        79.5907     14615.6621       0.264324         1.0000         0.0741         0.1585
    1896.61800        79.5973     14612.7891       0.264296         1.0000         0.0678         0.1658
    1896.77040        79.6038     14650.2705       0.264654         1.0000         0.0609         0.1472
    1896.92280        79.6104     15139.7734       0.269249         1.0000         0.0578         0.1319
    1897.07520        79.6169     15852.6406       0.275682         1.0000         0.0553         0.0976
    1897.22760        79.6235     16338.3213       0.279901         1.0000         0.0551         0.0837
    1897.38000        79.6300     16758.1172       0.283447         1.0000         0.0521         0.0273
    1897.53240        79.6366     16289.3008       0.279481         1.0000         0.0548         0.0813
    1897.68480        79.6431     15458.1572       0.272159         1.0000         0.0641         0.0646
    1897.83720        79.6497     14748.9053       0.265592         1.0000         0.0623         0.1213
    1897.98960        79.6562     15393.4717       0.271573         1.0000         0.0646         0.0992
    1898.14200        79.6628     16882.8066       0.284484         1.0000         0.0606         0.0919
    1898.29440        79.6693     18034.1426       0.293707         1.0000         0.0503         0.1112
    1898.44680        79.6759     18692.3027       0.298718         1.0000         0.0466         0.1235
    1898.59920        79.6824     19023.9434       0.301177         1.0000         0.0442         0.1798
    1898.75160        79.6890     18507.9551       0.297332         1.0000         0.0483         0.1848
    1898.90400        79.6955     17212.7852       0.287190         1.0000         0.0540         0.2339
    1899.05640        79.7021     16407.5684       0.280492         1.0000         0.0525         0.1726
    1899.20880        79.7086     16952.3809       0.285059         1.0000         0.0476         0.1211
    1899.36120        79.7152     17965.9922       0.293177         1.0000         0.0462         0.0720
    1899.51360        79.7218     18778.9883       0.299365         1.0000         0.0474         0.0824
    1899.66600        79.7283     19545.0762       0.304955         1.0000         0.0463         0.0382
    1899.81840        79.7349     20276.8535       0.310094         1.0000         0.0543         0.0627
    1899.97080        79.7414     20430.0000       0.311146         1.0000         0.0693         0.0499
    1900.12320        79.7480     19981.5410       0.308043         1.0000         0.0715         0.0621
    1900.27560        79.7545     19895.7773       0.307441         1.0000         0.0664         0.1062
    1900.42800        79.7611     19927.9180       0.307667         1.0000         0.0622         0.1186
    1900.58040        79.7676     20117.2344       0.308989         1.0000         0.0586         0.2168
    1900.73280        79.7742     20243.5293       0.309864         1.0000         0.0547         0.1556
    1900.88520        79.7807     20910.5801       0.314396         1.0000         0.0540         0.1235
