~Version Information Block
VERS .                 2.00:  CWLS LOG ASCII STANDARD - VERSION 2.00
WRAP .                   NO:  One line per depth step
~Well Information Block
#MNEM.UNIT        Data Type   Information
#---------- ----------------  -----------
STRT .M             0.00000:  START DEPTH
STOP .M          2091.69000:  STOP DEPTH
STEP .M             0.15240:  STEP
NULL .              -999.25:  NULL VALUE
COMP . Statoil Petroleum AS:  COMPANY
WELL .           NO_16/2-10:  WELL
FLD  .                     :  FIELD
LOC  .                     :  LOCATION
CTRY .                     :  COUNTRY
STAT .                     :  STATE
CNTY .                     :  COUNTY
API  .                     :  API NUMBER
UWI  .                     :  UNIQUE WELL ID
SRVC .                     :  SERVICE COMPANY
DATE .                     :  LOG DATE
~Curve Information Block
#MNEM.UNIT         API CODE   Curve Description
#---------- ----------------  -----------------
DEPTH.M                    :  
FTEMP.DEGC                 :  0.043*(TVDSS-115)+4
KLOGH.                     :  KLOGH
PHIT .V/V                  :  Limited apparent porosity
SAND .                     :  IFC((VSH<0.45&PHIT>0.12) 1 0)
SWT  .V/V                  :  Limited unflushed zone tot sat'n
VSH  .V/V                  :  Curve replaced from 1896.29 to 1896.64
~Parameter Information Block
#MNEM.UNIT            Value   Description
#---------- ----------------  -----------
SET  .                TOLT2:  
CUR_INT_BOT.             2310.384:  
~Other Information Block
#        DEPTH          FTEMP          KLOGH           PHIT           SAND            SWT            VSH 
~A
# ...
    1971.44640        82.8147        12.2973       0.180160         0.0000         1.0000         0.5292
    1971.59880        82.8212        15.6023       0.187161         0.0000         1.0000         0.5640
    1971.75120        82.8278        15.4050       0.186787         0.0000         1.0000         0.5932
    1971.90360        82.8343        15.7899       0.187512         0.0000         1.0000         0.6363
    1972.05600        82.8409        12.0698       0.179611         0.0000         1.0000         0.5968
    1972.20840        82.8474         9.4382       0.172377         0.0000         1.0000         0.5284
    1972.36080        82.8540         7.5816       0.165934         0.0000         1.0000         0.4738
    1972.51320        82.8605         7.8658       0.167017         0.0000         1.0000         0.5082
    1972.66560        82.8671         8.8887       0.170613         0.0000         1.0000         0.5573
    1972.81800        82.8736        10.9629       0.176781         0.0000         1.0000         0.6058
    1972.97040        82.8802        13.3876       0.182658         0.0000         1.0000         0.5960
    1973.12280        82.8867        15.8956       0.187709         0.0000         1.0000         0.6242
    1973.27520        82.8933        15.9705       0.187847         0.0000         1.0000         0.6722
    1973.42760        82.8998        14.3429       0.184685         0.0000         1.0000         0.6871
    1973.58000        82.9064        18.3334       0.191905         0.0000         0.9937         0.7736
    1973.73240        82.9129        15.3283       0.186640         0.0000         1.0000         0.6533
    1973.88480        82.9195         7.5323       0.165742         0.0000         1.0000         0.6557
    1974.03720        82.9261         3.1439       0.140044         0.0000         1.0000         0.4795
    1974.18960        82.9326         2.7412       0.136013         1.0000         1.0000         0.4329
    1974.34200        82.9392         3.7860       0.145511         1.0000         1.0000         0.2958
    1974.49440        82.9457         5.2745       0.155262         1.0000         0.9939         0.1929
    1974.64680        82.9523         4.9314       0.153284         1.0000         1.0000         0.1438
    1974.79920        82.9588         4.9189       0.153210         1.0000         1.0000         0.1114
    1974.95160        82.9654         4.1886       0.148483         1.0000         1.0000         0.1333
    1975.10400        82.9719         4.5496       0.150914         1.0000         1.0000         0.1284
    1975.25640        82.9785         4.0289       0.147339         1.0000         1.0000         0.1235
    1975.40880        82.9850         2.7251       0.135840         1.0000         1.0000         0.1015
    1975.56120        82.9916         1.2560       0.113057         0.0000         1.0000         0.0941
    1975.71360        82.9981         0.7464       0.097750         0.0000         1.0000         0.0891
    1975.86600        83.0047         1.0484       0.107743         0.0000         1.0000         0.1505
    1976.01840        83.0112         2.4861       0.133140         1.0000         1.0000         0.2489
    1976.17080        83.0178         5.7184       0.157639         1.0000         1.0000         0.3134
    1976.32320        83.0243         6.2270       0.160145         1.0000         1.0000         0.3134
    1976.47560        83.0309         5.0567       0.154022         1.0000         1.0000         0.2815
    1976.62800        83.0375         4.3026       0.149272         1.0000         1.0000         0.3273
    1976.78040        83.0440         4.5164       0.150699         1.0000         1.0000         0.3690
    1976.93280        83.0506         5.3619       0.155746         1.0000         1.0000         0.4283
    1977.08520        83.0571         4.8614       0.152864         1.0000         1.0000         0.3671
    1977.23760        83.0637         4.0148       0.147236         1.0000         1.0000         0.3572
    1977.39000        83.0702         3.8478       0.145986         1.0000         1.0000         0.3726
    1977.54240        83.0768         4.0541       0.147523         1.0000         1.0000         0.3829
    1977.69480        83.0833         4.2868       0.149164         1.0000         1.0000         0.3976
    1977.84720        83.0899         4.1607       0.148286         1.0000         1.0000         0.3511
    1977.99960        83.0964         5.0310       0.153872         1.0000         1.0000         0.3234
    1978.15200        83.1030         6.9688       0.163456         1.0000         1.0000         0.2985
    1978.30440        83.1095         8.5480       0.169463         1.0000         1.0000         0.2777
    1978.45680        83.1161         8.8324       0.170426         1.0000         1.0000         0.3219
    1978.60920        83.1226         6.5301       0.161543         1.0000         1.0000         0.3518
    1978.76160        83.1292         4.3736       0.149754         0.0000         1.0000         0.4690
    1978.91400        83.1357         2.2584       0.130315         0.0000         1.0000         0.4618
    1979.06640        83.1423         1.3958       0.116162         0.0000         1.0000         0.3536
    1979.21880        83.1489         1.1477       0.110407         0.0000         1.0000         0.0940
    1979.37120        83.1554         1.2647       0.113261         0.0000         1.0000         0.0000
    1979.52360        83.1620         1.4652       0.117588         0.0000         1.0000         0.0000
    1979.67600        83.1685         1.6679       0.121401         1.0000         1.0000         0.0000
    1979.82840        83.1751         1.6290       0.120707         1.0000         1.0000         0.0000
    1979.98080        83.1816         1.1024       0.109221         0.0000         1.0000         0.0000
    1980.13320        83.1882         0.6395       0.093206         0.0000         1.0000         0.0000
    1980.28560        83.1947         0.6219       0.092383         0.0000         1.0000         0.0000
    1980.43800        83.2013         1.0972       0.109081         0.0000         1.0000         0.0000
    1980.59040        83.2078         1.7703       0.123153         1.0000         1.0000         0.0233
    1980.74280        83.2144         1.8932       0.125126         1.0000         1.0000         0.1119
    1980.89520        83.2209         1.6774       0.121567         1.0000         1.0000         0.1199
    1981.04760        83.2275         1.5894       0.119982         0.0000         1.0000         0.1478
    1981.20000        83.2340         1.4034       0.116321         0.0000         1.0000         0.0876
    1981.35240        83.2406         1.1978       0.111662         0.0000         1.0000         0.0493
    1981.50480        83.2471         1.0588       0.108034         0.0000         1.0000         0.0939
    1981.65720        83.2537         0.8517       0.101631         0.0000         1.0000         0.0881
    1981.80960        83.2603         0.7032       0.095996         0.0000         1.0000         0.1105
    1981.96200        83.2668         0.5493       0.088733         0.0000         1.0000         0.1410
    1982.11440        83.2734         0.4658       0.083881         0.0000         1.0000         0.1792
    1982.26680        83.2799         0.3493       0.075419         0.0000         1.0000         0.1503
    1982.41920        83.2865         0.3091       0.071817         0.0000         1.0000         0.0612
    1982.57160        83.2930         0.4007       0.079458         0.0000         1.0000         0.0373
    1982.72400        83.2996         0.5654       0.089583         0.0000         1.0000         0.0822
    1982.87640        83.3061         0.8821       0.102664         0.0000         1.0000         0.1575
    1983.02880        83.3127         1.3725       0.115668         0.0000         1.0000         0.2323
