~Version Information Block
VERS .                 2.00:  CWLS LOG ASCII STANDARD - VERSION 2.00
WRAP .                   NO:  One line per depth step
~Well Information Block
#MNEM.UNIT        Data Type   Information
#---------- ----------------  -----------
STRT .M             0.00000:  START DEPTH
STOP .M          2091.69000:  STOP DEPTH
STEP .M             0.15240:  STEP
NULL .              -999.25:  NULL VALUE
COMP . Statoil Petroleum AS:  COMPANY
WELL .           NO_16/2-10:  WELL
FLD  .                     :  FIELD
LOC  .                     :  LOCATION
CTRY .                     :  COUNTRY
STAT .                     :  STATE
CNTY .                     :  COUNTY
API  .                     :  API NUMBER
UWI  .                     :  UNIQUE WELL ID
SRVC .                     :  SERVICE COMPANY
DATE .                     :  LOG DATE
~Curve Information Block
#MNEM.UNIT         API CODE   Curve Description
#---------- ----------------  -----------------
DEPTH.M                    :  
FTEMP.DEGC                 :  0.043*(TVDSS-115)+4
KLOGH.                     :  KLOGH
PHIT .V/V                  :  Limited apparent porosity
SAND .                     :  IFC((VSH<0.45&PHIT>0.12) 1 0)
SWT  .V/V                  :  Limited unflushed zone tot sat'n
VSH  .V/V                  :  Curve replaced from 1896.29 to 1896.64
~Parameter Information Block
#MNEM.UNIT            Value   Description
#---------- ----------------  -----------
SET  .                TOLT2:  
CUR_INT_BOT.             2310.384:  
~Other Information Block
#        DEPTH          FTEMP          KLOGH           PHIT           SAND            SWT            VSH 
~A
# ...
    1947.97680        81.8055      2528.7227       0.312316         1.0000         0.4773         0.0384
    1948.12920        81.8121      2628.3083       0.316713         1.0000         0.4839         0.0692
    1948.28160        81.8186      2733.6943       0.321189         1.0000         0.4542         0.1087
    1948.43400        81.8252      2751.8352       0.321942         1.0000         0.4573         0.1440
    1948.58640        81.8317      2787.4575       0.323406         1.0000         0.4523         0.1091
    1948.73880        81.8383      2849.4634       0.325911         1.0000         0.4496         0.0907
    1948.89120        81.8448      2995.7991       0.331612         1.0000         0.4467         0.0504
    1949.04360        81.8514      3078.8552       0.334725         1.0000         0.4608         0.1015
    1949.19600        81.8580      2948.7036       0.329808         1.0000         0.4867         0.1222
    1949.34840        81.8645      2577.6743       0.314499         1.0000         0.4823         0.1245
    1949.50080        81.8711      2089.7532       0.290610         1.0000         0.4871         0.1337
    1949.65320        81.8776      1727.9408       0.268967         1.0000         0.5586         0.2450
    1949.80560        81.8842      1569.0549       0.257986         1.0000         0.5913         0.2800
    1949.95800        81.8907      1712.6317       0.267954         1.0000         0.5579         0.2061
    1950.11040        81.8973      2082.3972       0.290209         1.0000         0.5355         0.0855
    1950.26280        81.9038      2522.5029       0.312036         1.0000         0.5029         0.0597
    1950.41520        81.9104      2742.0200       0.321535         1.0000         0.4756         0.0898
    1950.56760        81.9169      2833.0039       0.325251         1.0000         0.4669         0.0634
    1950.72000        81.9235      2885.3567       0.327336         1.0000         0.4638         0.0890
    1950.87240        81.9300      2976.3970       0.330872         1.0000         0.4591         0.0751
    1951.02480        81.9366      2936.3416       0.329330         1.0000         0.4655         0.0849
    1951.17720        81.9431      2862.3699       0.326425         1.0000         0.4685         0.0488
    1951.32960        81.9497      2810.3179       0.324336         1.0000         0.4720         0.0960
    1951.48200        81.9562      2916.0522       0.328540         1.0000         0.4706         0.0791
    1951.63440        81.9628      3073.0051       0.334509         1.0000         0.4638         0.0478
    1951.78680        81.9693      3144.8765       0.337140         1.0000         0.4616         0.0000
    1951.93920        81.9759      3111.9180       0.335941         1.0000         0.4634         0.0096
    1952.09160        81.9824      3016.6646       0.332402         1.0000         0.4674         0.0163
    1952.24400        81.9890      2915.5142       0.328519         1.0000         0.4723         0.0822
    1952.39640        81.9955      2843.9324       0.325689         1.0000         0.4853         0.0639
    1952.54880        82.0021      2844.1631       0.325699         1.0000         0.4916         0.0476
    1952.70120        82.0087      2879.5728       0.327107         1.0000         0.4974         0.0463
    1952.85360        82.0152      2947.2966       0.329754         1.0000         0.5091         0.0364
    1953.00600        82.0218      2980.9868       0.331048         1.0000         0.5293         0.0646
    1953.15840        82.0283      2969.0295       0.330590         1.0000         0.5206         0.0214
    1953.31080        82.0349      2814.0962       0.324489         1.0000         0.5052         0.0030
    1953.46320        82.0414      2686.9463       0.319225         1.0000         0.4887         0.0000
    1953.61560        82.0480      2682.9463       0.319056         1.0000         0.5224         0.0240
    1953.76800        82.0545      2830.0679       0.325133         1.0000         0.5299         0.0431
    1953.92040        82.0611      2986.7720       0.331268         1.0000         0.5331         0.0232
    1954.07280        82.0676      3060.8047       0.334056         1.0000         0.5419         0.0000
    1954.22520        82.0742      3091.5662       0.335194         1.0000         0.5103         0.0000
    1954.37760        82.0807      2994.9272       0.331579         1.0000         0.5773         0.0000
    1954.53000        82.0873      2799.1406       0.323882         1.0000         0.5915         0.0000
    1954.68240        82.0938      2623.6948       0.316513         1.0000         0.5858         0.0280
    1954.83480        82.1004      2525.5610       0.312174         1.0000         0.5995         0.0000
    1954.98720        82.1069      2287.8972       0.300923         1.0000         0.6288         0.0499
    1955.13960        82.1135      1875.9554       0.278323         1.0000         0.7056         0.0345
    1955.29200        82.1201      1457.5859       0.249597         1.0000         0.8298         0.1237
    1955.44440        82.1266      1433.2197       0.247678         1.0000         0.7628         0.1017
    1955.59680        82.1332      1508.3845       0.253497         1.0000         0.7366         0.1885
    1955.74920        82.1397      1696.0316       0.266845         1.0000         0.6586         0.2275
    1955.90160        82.1463      1693.8339       0.266697         1.0000         0.6566         0.3193
    1956.05400        82.1528      1848.2557       0.276630         1.0000         0.6144         0.2435
    1956.20640        82.1594      2074.6836       0.289786         1.0000         0.5822         0.1849
    1956.35880        82.1659      2482.5723       0.310219         1.0000         0.5611         0.0790
    1956.51120        82.1725      2836.7117       0.325400         1.0000         0.5583         0.0149
    1956.66360        82.1790      3127.3237       0.336503         1.0000         0.5399         0.0000
    1956.81600        82.1856      3127.0347       0.336493         1.0000         0.5014         0.0000
    1956.96840        82.1921      3034.7209       0.333081         1.0000         0.5129         0.0000
    1957.12080        82.1987      2821.1912       0.324775         1.0000         0.6169         0.0000
    1957.27320        82.2052      2507.6255       0.311362         1.0000         0.8504         0.0000
    1957.42560        82.2118      2196.8184       0.296298         1.0000         0.8172         0.0000
    1957.57800        82.2183      2032.7994       0.287464         1.0000         0.8405         0.0000
    1957.73040        82.2249      2209.6880       0.296963         1.0000         0.8435         0.0000
    1957.88280        82.2315      2581.7559       0.314679         1.0000         0.8922         0.0000
    1958.03520        82.2380      2743.6987       0.321605         1.0000         0.8821         0.0000
    1958.18760        82.2446      2528.3347       0.312299         1.0000         0.8752         0.0000
    1958.34000        82.2511      2132.7261       0.292927         1.0000         0.8921         0.0000
    1958.49240        82.2577      2004.8816       0.285890         1.0000         0.8374         0.0021
    1958.64480        82.2642      1972.9515       0.284062         1.0000         0.8459         0.0043
    1958.79720        82.2708      2035.4258       0.287611         1.0000         0.8549         0.0348
    1958.94960        82.2773      1869.0834       0.277905         1.0000         0.9241         0.0000
    1959.10200        82.2839      1603.9697       0.260491         1.0000         0.9140         0.0090
    1959.25440        82.2904      1605.7427       0.260617         1.0000         0.9092         0.0311
    1959.40680        82.2970      1912.4714       0.280518         1.0000         0.8889         0.0597
    1959.55920        82.3035      2426.9985       0.307642         1.0000         0.8363         0.0903
