~Version Information Block
VERS .                 2.00:  CWLS LOG ASCII STANDARD - VERSION 2.00
WRAP .                   NO:  One line per depth step
~Well Information Block
#MNEM.UNIT        Data Type   Information
#---------- ----------------  -----------
STRT .M             0.00000:  START DEPTH
STOP .M          2091.69000:  STOP DEPTH
STEP .M             0.15240:  STEP
NULL .              -999.25:  NULL VALUE
COMP . Statoil Petroleum AS:  COMPANY
WELL .           NO_16/2-10:  WELL
FLD  .                     :  FIELD
LOC  .                     :  LOCATION
CTRY .                     :  COUNTRY
STAT .                     :  STATE
CNTY .                     :  COUNTY
API  .                     :  API NUMBER
UWI  .                     :  UNIQUE WELL ID
SRVC .                     :  SERVICE COMPANY
DATE .                     :  LOG DATE
~Curve Information Block
#MNEM.UNIT         API CODE   Curve Description
#---------- ----------------  -----------------
DEPTH.M                    :  
FTEMP.DEGC                 :  0.043*(TVDSS-115)+4
KLOGH.                     :  KLOGH
PHIT .V/V                  :  Limited apparent porosity
SAND .                     :  IFC((VSH<0.45&PHIT>0.12) 1 0)
SWT  .V/V                  :  Limited unflushed zone tot sat'n
VSH  .V/V                  :  Curve replaced from 1896.29 to 1896.64
~Parameter Information Block
#MNEM.UNIT            Value   Description
#---------- ----------------  -----------
SET  .                TOLT2:  
CUR_INT_BOT.             2310.384:  
~Other Information Block
#        DEPTH          FTEMP          KLOGH           PHIT           SAND            SWT            VSH 
~A
# ...
    2018.38560        84.8330       345.7351       0.278287         1.0000         0.7361         0.0000
    2018.53800        84.8395       126.1263       0.248628         1.0000         0.7967         0.0000
    2018.69040        84.8461        57.3878       0.225467         1.0000         0.8490         0.0000
    2018.84280        84.8526        32.5085       0.208752         1.0000         0.9083         0.0000
    2018.99520        84.8592        21.9733       0.197232         1.0000         0.8651         0.0000
    2019.14760        84.8657        16.1383       0.188154         1.0000         0.9085         0.0026
    2019.30000        84.8723        13.9442       0.183856         1.0000         0.8983         0.0236
    2019.45240        84.8788        13.2578       0.182372         1.0000         0.9367         0.0731
    2019.60480        84.8854        13.9251       0.183816         1.0000         0.9543         0.0963
    2019.75720        84.8919        14.0684       0.184117         1.0000         0.9663         0.0466
    2019.90960        84.8985        14.7474       0.185503         1.0000         0.9638         0.0098
    2020.06200        84.9050        14.2134       0.184419         1.0000         0.9521         0.0000
    2020.21440        84.9116        13.9272       0.183820         1.0000         0.9459         0.0462
    2020.36680        84.9182        12.7903       0.181316         1.0000         0.9783         0.0231
    2020.51920        84.9247        11.3853       0.177893         1.0000         0.9833         0.0258
    2020.67160        84.9313         9.0975       0.171295         1.0000         1.0000         0.0102
    2020.82400        84.9378         7.0555       0.163819         1.0000         1.0000         0.0779
    2020.97640        84.9444         6.0314       0.159207         1.0000         1.0000         0.1457
    2021.12880        84.9509         5.5613       0.156820         1.0000         1.0000         0.1772
    2021.28120        84.9575         5.7112       0.157602         1.0000         1.0000         0.1798
    2021.43360        84.9640         6.0434       0.159265         1.0000         1.0000         0.1692
    2021.58600        84.9706         5.8783       0.158450         1.0000         1.0000         0.1328
    2021.73840        84.9771         5.9267       0.158691         1.0000         1.0000         0.1468
    2021.89080        84.9837         6.3591       0.160763         1.0000         1.0000         0.1861
    2022.04320        84.9902         7.2300       0.164538         1.0000         1.0000         0.2225
    2022.19560        84.9968         8.8464       0.170472         1.0000         1.0000         0.1563
    2022.34800        85.0034        10.9627       0.176781         1.0000         0.9870         0.0388
    2022.50040        85.0099        15.9702       0.187846         1.0000         0.9443         0.0073
    2022.65280        85.0165        27.7187       0.204064         1.0000         0.9271         0.0595
    2022.80520        85.0230        48.8830       0.220750         1.0000         0.9137         0.0309
    2022.95760        85.0295        69.4067       0.231060         1.0000         0.8792         0.0024
    2023.11000        85.0361        63.0048       0.228214         1.0000         0.8785         0.0000
    2023.26240        85.0427        55.7991       0.224642         1.0000         0.8878         0.0000
    2023.41480        85.0492        42.6297       0.216724         1.0000         0.8960         0.0000
    2023.56720        85.0558        25.5991       0.201724         1.0000         0.9886         0.0180
    2023.71960        85.0623        13.6221       0.183169         1.0000         0.8518         0.0000
    2023.87200        85.0689        10.3797       0.175173         1.0000         1.0000         0.0165
    2024.02440        85.0754        11.3120       0.177703         1.0000         0.9784         0.0452
    2024.17680        85.0820        14.7500       0.185509         1.0000         1.0000         0.1457
    2024.32920        85.0885        16.9854       0.189659         1.0000         0.9893         0.1237
    2024.48160        85.0951        20.8756       0.195724         1.0000         0.9320         0.0872
    2024.63400        85.1016        23.3095       0.198968         1.0000         0.9172         0.0493
    2024.78640        85.1082        24.8131       0.200807         1.0000         0.9584         0.0545
    2024.93880        85.1147        25.6580       0.201791         1.0000         0.9053         0.0516
    2025.09120        85.1213        25.8966       0.202064         1.0000         0.9344         0.0985
    2025.24360        85.1278        25.9876       0.202167         1.0000         0.9197         0.0751
    2025.39600        85.1344        23.9890       0.199813         1.0000         0.8877         0.0874
    2025.54840        85.1410        20.1596       0.194698         1.0000         0.9648         0.0000
    2025.70080        85.1475        19.9348       0.194368         1.0000         0.9700         0.0709
    2025.85320        85.1541        25.3176       0.201399         1.0000         0.9448         0.0757
    2026.00560        85.1606        42.5510       0.216669         1.0000         0.8963         0.0889
    2026.15800        85.1672        68.4015       0.230631         1.0000         0.8497         0.0446
    2026.31040        85.1737        74.1673       0.233011         1.0000         0.8328         0.0053
    2026.46280        85.1803        43.4361       0.217275         1.0000         0.8950         0.0473
    2026.61520        85.1868        26.0825       0.202274         1.0000         0.9812         0.1235
    2026.76760        85.1934        21.6117       0.196744         1.0000         1.0000         0.1334
    2026.92000        85.1999        31.5671       0.207887         1.0000         0.9865         0.1406
    2027.07240        85.2065        38.3480       0.213611         1.0000         0.9334         0.0351
    2027.22480        85.2130        27.3639       0.203685         1.0000         0.9405         0.0597
    2027.37720        85.2196        12.4264       0.180467         1.0000         0.9590         0.0600
    2027.52960        85.2261         7.2332       0.164551         1.0000         1.0000         0.0943
    2027.68200        85.2327        10.9637       0.176783         1.0000         1.0000         0.0943
    2027.83440        85.2393        21.0976       0.196036         1.0000         0.9810         0.0474
    2027.98680        85.2458        23.1506       0.198767         1.0000         0.9234         0.0474
    2028.13920        85.2524        17.9876       0.191345         1.0000         0.9629         0.0425
    2028.29160        85.2589        15.6709       0.187290         1.0000         1.0000         0.0695
    2028.44400        85.2655        25.2726       0.201346         1.0000         0.9991         0.0696
    2028.59640        85.2720        33.4462       0.209588         1.0000         0.9559         0.0548
    2028.74880        85.2786        31.6989       0.208010         1.0000         0.9533         0.0744
    2028.90120        85.2851        19.6146       0.193892         1.0000         0.9841         0.0743
    2029.05360        85.2917        18.1543       0.191616         1.0000         0.9828         0.1235
    2029.20600        85.2982        18.6092       0.192344         1.0000         1.0000         0.1726
    2029.35840        85.3048        22.5477       0.197991         1.0000         0.9099         0.1408
    2029.51080        85.3113        17.2802       0.190165         1.0000         0.8980         0.0744
    2029.66320        85.3179        14.8808       0.185768         1.0000         0.9350         0.0204
    2029.81560        85.3244        12.0421       0.179543         1.0000         0.9485         0.0229
    2029.96800        85.3310        10.4150       0.175273         1.0000         1.0000         0.0940
