~Version Information Block
VERS .                 2.00:  CWLS LOG ASCII STANDARD - VERSION 2.00
WRAP .                   NO:  One line per depth step
~Well Information Block
#MNEM.UNIT        Data Type   Information
#---------- ----------------  -----------
STRT .M             0.00000:  START DEPTH
STOP .M          2091.69000:  STOP DEPTH
STEP .M             0.15240:  STEP
NULL .              -999.25:  NULL VALUE
COMP . Statoil Petroleum AS:  COMPANY
WELL .           NO_16/2-10:  WELL
FLD  .                     :  FIELD
LOC  .                     :  LOCATION
CTRY .                     :  COUNTRY
STAT .                     :  STATE
CNTY .                     :  COUNTY
API  .                     :  API NUMBER
UWI  .                     :  UNIQUE WELL ID
SRVC .                     :  SERVICE COMPANY
DATE .                     :  LOG DATE
~Curve Information Block
#MNEM.UNIT         API CODE   Curve Description
#---------- ----------------  -----------------
DEPTH.M                    :  
FTEMP.DEGC                 :  0.043*(TVDSS-115)+4
KLOGH.                     :  KLOGH
PHIT .V/V                  :  Limited apparent porosity
SAND .                     :  IFC((VSH<0.45&PHIT>0.12) 1 0)
SWT  .V/V                  :  Limited unflushed zone tot sat'n
VSH  .V/V                  :  Curve replaced from 1896.29 to 1896.64
~Parameter Information Block
#MNEM.UNIT            Value   Description
#---------- ----------------  -----------
SET  .                TOLT2:  
CUR_INT_BOT.             2310.384:  
~Other Information Block
#        DEPTH          FTEMP          KLOGH           PHIT           SAND            SWT            VSH 
~A
# ...
    2030.12040        85.3375         9.5866       0.172836         1.0000         1.0000         0.1174
    2030.27280        85.3441         9.9636       0.173970         1.0000         1.0000         0.1886
    2030.42520        85.3506        11.4981       0.178183         1.0000         1.0000         0.1641
    2030.57760        85.3572        12.3876       0.180375         1.0000         1.0000         0.1387
    2030.73000        85.3638        10.8522       0.176483         1.0000         1.0000         0.0945
    2030.88240        85.3703         9.1216       0.171373         1.0000         1.0000         0.0871
    2031.03480        85.3769         9.0580       0.171168         1.0000         1.0000         0.0891
    2031.18720        85.3834         8.8655       0.170536         1.0000         1.0000         0.0916
    2031.33960        85.3900         8.5464       0.169458         1.0000         1.0000         0.1253
    2031.49200        85.3965         6.8698       0.163035         1.0000         1.0000         0.0811
    2031.64440        85.4031         7.2463       0.164604         1.0000         1.0000         0.0710
    2031.79680        85.4096         6.7262       0.162413         1.0000         1.0000         0.1012
    2031.94920        85.4162         8.5029       0.169307         1.0000         1.0000         0.0963
    2032.10160        85.4227         9.7705       0.173395         1.0000         1.0000         0.1039
    2032.25400        85.4293        14.1846       0.184359         1.0000         1.0000         0.0203
    2032.40640        85.4358        16.4754       0.188762         1.0000         1.0000         0.1087
    2032.55880        85.4424        14.7390       0.185487         1.0000         1.0000         0.1777
    2032.71120        85.4489        13.8491       0.183655         1.0000         1.0000         0.1532
    2032.86360        85.4555        11.3534       0.177811         1.0000         1.0000         0.0954
    2033.01600        85.4621        11.3413       0.177779         1.0000         1.0000         0.0745
    2033.16840        85.4686         9.7427       0.173311         1.0000         0.9959         0.0942
    2033.32080        85.4752         8.6826       0.169923         1.0000         1.0000         0.1081
    2033.47320        85.4817         9.0707       0.171209         1.0000         1.0000         0.0552
    2033.62560        85.4883        10.3571       0.175109         1.0000         1.0000         0.1180
    2033.77800        85.4948        10.8737       0.176541         1.0000         1.0000         0.1447
    2033.93040        85.5014        10.2642       0.174844         1.0000         1.0000         0.1813
    2034.08280        85.5079         9.2100       0.171657         1.0000         1.0000         0.1725
    2034.23520        85.5145        10.9894       0.176852         1.0000         1.0000         0.1621
    2034.38760        85.5210        14.9634       0.185931         1.0000         1.0000         0.1328
    2034.54000        85.5276        19.4467       0.193639         1.0000         0.9669         0.1161
    2034.69240        85.5341        23.0814       0.198679         1.0000         0.9889         0.1485
    2034.84480        85.5407        18.1940       0.191681         1.0000         1.0000         0.2521
    2034.99720        85.5472        13.2303       0.182311         1.0000         1.0000         0.3153
    2035.14960        85.5538        13.4399       0.182773         1.0000         1.0000         0.2876
    2035.30200        85.5603        13.7692       0.183485         1.0000         1.0000         0.1716
    2035.45440        85.5669        15.9379       0.187787         1.0000         0.9107         0.0920
    2035.60680        85.5734        11.3273       0.177743         1.0000         1.0000         0.0905
    2035.75920        85.5800        15.7311       0.187403         1.0000         1.0000         0.1067
    2035.91160        85.5866        25.0071       0.201036         1.0000         1.0000         0.0857
    2036.06400        85.5931        44.0989       0.217720         1.0000         0.9545         0.0457
    2036.21640        85.5997        49.5679       0.221159         1.0000         0.9853         0.0959
    2036.36880        85.6062        55.8494       0.224668         1.0000         0.9705         0.1449
    2036.52120        85.6128        62.6230       0.228035         1.0000         0.8907         0.1099
    2036.67360        85.6193        69.1402       0.230947         1.0000         0.8871         0.1025
    2036.82600        85.6259        61.1143       0.227318         1.0000         0.8977         0.0515
    2036.97840        85.6324        49.1179       0.220891         1.0000         0.9049         0.1025
    2037.13080        85.6390        44.5862       0.218044         1.0000         0.9533         0.0411
    2037.28320        85.6455        41.8725       0.216197         1.0000         0.9133         0.0481
    2037.43560        85.6521        43.5820       0.217374         1.0000         0.9186         0.0805
    2037.58800        85.6586        37.4814       0.212938         1.0000         0.9665         0.1223
    2037.74040        85.6652        31.6505       0.207965         1.0000         0.9765         0.1664
    2037.89280        85.6717        31.2152       0.207558         1.0000         0.9519         0.1664
    2038.04520        85.6783        31.3604       0.207694         1.0000         0.9191         0.1079
    2038.19760        85.6849        25.6903       0.201828         1.0000         0.9356         0.0472
    2038.35000        85.6914        17.3112       0.190218         1.0000         0.9948         0.0209
    2038.50240        85.6980        13.2583       0.182373         1.0000         1.0000         0.0264
    2038.65480        85.7045        12.7438       0.181209         1.0000         1.0000         0.0764
    2038.80720        85.7111        15.9536       0.187816         1.0000         1.0000         0.0538
    2038.95960        85.7176        24.5939       0.200546         1.0000         1.0000         0.0538
    2039.11200        85.7242        41.0850       0.215638         1.0000         0.9968         0.0987
    2039.26440        85.7307        58.0704       0.225815         1.0000         0.9297         0.1101
    2039.41680        85.7373        49.7333       0.221257         1.0000         0.9249         0.1908
    2039.56920        85.7438        38.0795       0.213404         1.0000         0.9321         0.1432
    2039.72160        85.7504        25.7807       0.201932         1.0000         1.0000         0.1654
    2039.87400        85.7569        18.5511       0.192252         1.0000         1.0000         0.1871
    2040.02640        85.7635        14.8975       0.185801         1.0000         1.0000         0.1789
    2040.17880        85.7700        15.3193       0.186623         1.0000         1.0000         0.1871
    2040.33120        85.7766        20.4402       0.195105         1.0000         0.9803         0.1765
    2040.48360        85.7831        25.6632       0.201797         1.0000         0.9734         0.1236
    2040.63600        85.7897        33.1358       0.209314         1.0000         0.9432         0.0627
    2040.78840        85.7962        36.9635       0.212529         1.0000         0.9058         0.0393
    2040.94080        85.8028        28.2168       0.204587         1.0000         0.9183         0.0978
    2041.09320        85.8094        18.4840       0.192146         1.0000         0.9949         0.1110
    2041.24560        85.8159        13.9170       0.183799         1.0000         1.0000         0.0731
    2041.39800        85.8225        14.9526       0.185910         1.0000         1.0000         0.0766
    2041.55040        85.8290        17.3334       0.190256         1.0000         1.0000         0.0844
    2041.70280        85.8356        21.8465       0.197062         1.0000         1.0000         0.1014
