~Version Information Block
VERS .                 2.00:  CWLS LOG ASCII STANDARD - VERSION 2.00
WRAP .                   NO:  One line per depth step
~Well Information Block
#MNEM.UNIT        Data Type   Information
#---------- ----------------  -----------
STRT .M             0.00000:  START DEPTH
STOP .M          2091.69000:  STOP DEPTH
STEP .M             0.15240:  STEP
NULL .              -999.25:  NULL VALUE
COMP . Statoil Petroleum AS:  COMPANY
WELL .           NO_16/2-10:  WELL
FLD  .                     :  FIELD
LOC  .                     :  LOCATION
CTRY .                     :  COUNTRY
STAT .                     :  STATE
CNTY .                     :  COUNTY
API  .                     :  API NUMBER
UWI  .                     :  UNIQUE WELL ID
SRVC .                     :  SERVICE COMPANY
DATE .                     :  LOG DATE
~Curve Information Block
#MNEM.UNIT         API CODE   Curve Description
#---------- ----------------  -----------------
DEPTH.M                    :  
FTEMP.DEGC                 :  0.043*(TVDSS-115)+4
KLOGH.                     :  KLOGH
PHIT .V/V                  :  Limited apparent porosity
SAND .                     :  IFC((VSH<0.45&PHIT>0.12) 1 0)
SWT  .V/V                  :  Limited unflushed zone tot sat'n
VSH  .V/V                  :  Curve replaced from 1896.29 to 1896.64
~Parameter Information Block
#MNEM.UNIT            Value   Description
#---------- ----------------  -----------
SET  .                TOLT2:  
CUR_INT_BOT.             2310.384:  
~Other Information Block
#        DEPTH          FTEMP          KLOGH           PHIT           SAND            SWT            VSH 
~A
# ...
    2053.59000        86.3467         5.2472       0.155110         1.0000         1.0000         0.1906
    2053.74240        86.3533         6.1031       0.159554         1.0000         1.0000         0.1933
    2053.89480        86.3598         4.5586       0.150972         1.0000         1.0000         0.1544
    2054.04720        86.3664         2.6088       0.134556         1.0000         1.0000         0.1487
    2054.19960        86.3729         1.7828       0.123360         1.0000         1.0000         0.1414
    2054.35200        86.3795         2.0572       0.127569         1.0000         1.0000         0.2025
    2054.50440        86.3860         3.2547       0.141063         1.0000         1.0000         0.1891
    2054.65680        86.3926         3.9483       0.146745         1.0000         1.0000         0.1856
    2054.80920        86.3991         3.6941       0.144788         1.0000         1.0000         0.2555
    2054.96160        86.4057         3.0398       0.139054         1.0000         1.0000         0.2825
    2055.11400        86.4122         2.4750       0.133009         1.0000         1.0000         0.3183
    2055.26640        86.4188         2.3025       0.130883         1.0000         1.0000         0.3397
    2055.41880        86.4253         2.8166       0.136811         1.0000         1.0000         0.4014
    2055.57120        86.4319         4.0383       0.147408         0.0000         1.0000         0.4736
    2055.72360        86.4384         4.6209       0.151372         0.0000         1.0000         0.4887
    2055.87600        86.4450         4.0292       0.147342         0.0000         1.0000         0.5441
    2056.02840        86.4516         3.1444       0.140049         0.0000         1.0000         0.5134
    2056.18080        86.4581         2.7659       0.136277         1.0000         1.0000         0.4405
    2056.33320        86.4647         2.6481       0.134997         1.0000         1.0000         0.3192
    2056.48560        86.4712         2.5958       0.134410         1.0000         1.0000         0.2667
    2056.63800        86.4778         2.5937       0.134386         1.0000         1.0000         0.2277
    2056.79040        86.4843         2.8594       0.137254         1.0000         1.0000         0.2240
    2056.94280        86.4909         3.2202       0.140750         1.0000         1.0000         0.2073
    2057.09520        86.4974         3.3182       0.141631         1.0000         1.0000         0.2243
    2057.24760        86.5040         3.1936       0.140505         1.0000         1.0000         0.2018
    2057.40000        86.5105         3.2359       0.140892         1.0000         1.0000         0.1953
    2057.55240        86.5171         4.3333       0.149481         1.0000         1.0000         0.1811
    2057.70480        86.5236         5.4720       0.156344         1.0000         1.0000         0.1680
    2057.85720        86.5302         6.6597       0.162121         1.0000         1.0000         0.1367
    2058.00960        86.5367         6.6076       0.161890         1.0000         1.0000         0.0935
    2058.16200        86.5433         6.8059       0.162760         1.0000         1.0000         0.1359
    2058.31440        86.5498         6.8297       0.162862         1.0000         1.0000         0.1883
    2058.46680        86.5564         6.8309       0.162868         1.0000         1.0000         0.1919
    2058.61920        86.5630         6.3567       0.160752         1.0000         1.0000         0.1330
    2058.77160        86.5695         6.2362       0.160189         1.0000         1.0000         0.1137
    2058.92400        86.5761         6.1537       0.159797         1.0000         1.0000         0.1179
    2059.07640        86.5826         6.5343       0.161562         1.0000         1.0000         0.1449
    2059.22880        86.5892         6.8207       0.162824         1.0000         1.0000         0.1274
    2059.38120        86.5957         7.5099       0.165655         1.0000         1.0000         0.1613
    2059.53360        86.6023         7.8989       0.167140         1.0000         1.0000         0.1724
    2059.68600        86.6088         7.0442       0.163772         1.0000         1.0000         0.1361
    2059.83840        86.6154         7.0248       0.163691         1.0000         1.0000         0.1002
    2059.99080        86.6219         6.7363       0.162458         1.0000         1.0000         0.1004
    2060.14320        86.6285         8.0001       0.167515         1.0000         0.9899         0.1061
    2060.29560        86.6350         7.8764       0.167056         1.0000         0.9894         0.1420
    2060.44800        86.6416         7.0658       0.163862         1.0000         1.0000         0.1112
    2060.60040        86.6481         5.8493       0.158305         1.0000         1.0000         0.1057
    2060.75280        86.6547         5.5375       0.156694         1.0000         1.0000         0.0274
    2060.90520        86.6612         6.6317       0.161997         1.0000         1.0000         0.0217
    2061.05760        86.6678         8.5076       0.169324         1.0000         1.0000         0.0690
    2061.21000        86.6743         9.8292       0.173571         1.0000         1.0000         0.1543
    2061.36240        86.6809         8.7041       0.169995         1.0000         0.8926         0.1198
    2061.51480        86.6875         5.6620       0.157348         1.0000         0.9171         0.0586
    2061.66720        86.6940         3.5692       0.143776         1.0000         1.0000         0.0054
    2061.81960        86.7006         2.7950       0.136585         1.0000         1.0000         0.0384
    2061.97200        86.7071         2.9290       0.137962         1.0000         1.0000         0.0495
    2062.12440        86.7137         3.4425       0.142713         1.0000         1.0000         0.0539
    2062.27680        86.7202         4.6567       0.151599         1.0000         1.0000         0.0751
    2062.42920        86.7268         6.6800       0.162211         1.0000         0.9111         0.1018
    2062.58160        86.7333         8.2484       0.168414         1.0000         1.0000         0.1088
    2062.73400        86.7399         8.3959       0.168935         1.0000         1.0000         0.1143
    2062.88640        86.7464         7.9325       0.167265         1.0000         1.0000         0.1153
    2063.03880        86.7530         8.2756       0.168511         1.0000         1.0000         0.1514
    2063.19120        86.7595         8.0914       0.167848         1.0000         0.9890         0.1852
    2063.34360        86.7661         7.1107       0.164048         1.0000         1.0000         0.3190
    2063.49600        86.7726         5.9322       0.158719         1.0000         1.0000         0.3416
    2063.64840        86.7792         5.1888       0.154781         1.0000         1.0000         0.3693
    2063.80080        86.7858         6.6362       0.162017         1.0000         1.0000         0.2216
    2063.95320        86.7923         9.3182       0.172001         1.0000         1.0000         0.1767
    2064.10560        86.7989        12.2508       0.180048         1.0000         1.0000         0.1376
    2064.25800        86.8054        11.3518       0.177807         1.0000         0.9953         0.1080
    2064.41040        86.8120        12.1654       0.179842         1.0000         1.0000         0.1053
    2064.56280        86.8185        15.8341       0.187595         1.0000         1.0000         0.0908
    2064.71520        86.8251        21.6994       0.196863         1.0000         0.9760         0.1065
    2064.86760        86.8316        24.8147       0.200809         1.0000         0.9040         0.0676
    2065.02000        86.8382        27.6002       0.203938         1.0000         0.8779         0.0107
    2065.17240        86.8447        26.9925       0.203283         1.0000         0.8752         0.0060
