~Version Information Block
VERS .                 2.00:  CWLS LOG ASCII STANDARD - VERSION 2.00
WRAP .                   NO:  One line per depth step
~Well Information Block
#MNEM.UNIT        Data Type   Information
#---------- ----------------  -----------
STRT .M             0.00000:  START DEPTH
STOP .M          2091.69000:  STOP DEPTH
STEP .M             0.15240:  STEP
NULL .              -999.25:  NULL VALUE
COMP . Statoil Petroleum AS:  COMPANY
WELL .           NO_16/2-10:  WELL
FLD  .                     :  FIELD
LOC  .                     :  LOCATION
CTRY .                     :  COUNTRY
STAT .                     :  STATE
CNTY .                     :  COUNTY
API  .                     :  API NUMBER
UWI  .                     :  UNIQUE WELL ID
SRVC .                     :  SERVICE COMPANY
DATE .                     :  LOG DATE
~Curve Information Block
#MNEM.UNIT         API CODE   Curve Description
#---------- ----------------  -----------------
DEPTH.M                    :  
FTEMP.DEGC                 :  0.043*(TVDSS-115)+4
KLOGH.                     :  KLOGH
PHIT .V/V                  :  Limited apparent porosity
SAND .                     :  IFC((VSH<0.45&PHIT>0.12) 1 0)
SWT  .V/V                  :  Limited unflushed zone tot sat'n
VSH  .V/V                  :  Curve replaced from 1896.29 to 1896.64
~Parameter Information Block
#MNEM.UNIT            Value   Description
#---------- ----------------  -----------
SET  .                TOLT2:  
CUR_INT_BOT.             2310.384:  
~Other Information Block
#        DEPTH          FTEMP          KLOGH           PHIT           SAND            SWT            VSH 
~A
# ...
    1936.24200        81.3010      2626.1851       0.316621         1.0000         0.2108         0.0000
    1936.39440        81.3075      2626.3198       0.316627         1.0000         0.2258         0.0000
    1936.54680        81.3141      2664.1582       0.318256         1.0000         0.2619         0.0000
    1936.69920        81.3206      2710.0828       0.320201         1.0000         0.2990         0.0323
    1936.85160        81.3272      2754.1421       0.322037         1.0000         0.3376         0.0961
    1937.00400        81.3337      2691.6401       0.319424         1.0000         0.3577         0.0804
    1937.15640        81.3403      2443.8845       0.308431         1.0000         0.3899         0.0664
    1937.30880        81.3468      2252.9504       0.299170         1.0000         0.3794         0.1583
    1937.46120        81.3534      2393.5986       0.306064         1.0000         0.2657         0.2182
    1937.61360        81.3599      3023.5359       0.332661         1.0000         0.2379         0.1154
    1937.76600        81.3665      3758.4895       0.357432         1.0000         0.2165         0.0226
    1937.91840        81.3730      4290.3594       0.372499         1.0000         0.2174         0.0000
    1938.07080        81.3796      4394.0771       0.375219         1.0000         0.2358         0.0289
    1938.22320        81.3861      4247.6943       0.371361         1.0000         0.2398         0.0000
    1938.37560        81.3927      3990.8032       0.364260         1.0000         0.2313         0.0000
    1938.52800        81.3993      3577.8242       0.351824         1.0000         0.2652         0.0000
    1938.68040        81.4058      3141.6179       0.337022         1.0000         0.2378         0.0000
    1938.83280        81.4124      2832.5366       0.325232         1.0000         0.2615         0.0000
    1938.98520        81.4189      2777.6963       0.323007         1.0000         0.2743         0.0000
    1939.13760        81.4255      2680.0745       0.318934         1.0000         0.2862         0.0000
    1939.29000        81.4320      2434.1685       0.307978         1.0000         0.3245         0.0000
    1939.44240        81.4386      2069.6453       0.289509         1.0000         0.3264         0.0194
    1939.59480        81.4451      1993.7766       0.285258         1.0000         0.4074         0.1278
    1939.74720        81.4517      2253.5903       0.299203         1.0000         0.4024         0.3235
    1939.89960        81.4582      2752.0586       0.321951         1.0000         0.3455         0.4042
    1940.05200        81.4648      3193.6042       0.338891         1.0000         0.3250         0.3077
    1940.20440        81.4713      3140.5786       0.336985         1.0000         0.3807         0.2304
    1940.35680        81.4779      2771.2061       0.322740         1.0000         0.4392         0.3136
    1940.50920        81.4844      2192.0840       0.296052         0.0000         0.4840         0.5210
    1940.66160        81.4910      1936.4189       0.281935         0.0000         0.5041         0.6246
    1940.81400        81.4975      2123.1306       0.292414         0.0000         0.4569         0.5917
    1940.96640        81.5041      2552.6787       0.313389         1.0000         0.4340         0.4286
    1941.11880        81.5107      2980.2415       0.331019         1.0000         0.4124         0.2554
    1941.27120        81.5172      3032.6792       0.333005         1.0000         0.4208         0.1527
    1941.42360        81.5238      3043.3840       0.333406         1.0000         0.4239         0.0666
    1941.57600        81.5303      2863.9192       0.326487         1.0000         0.4460         0.1112
    1941.72840        81.5369      2660.7061       0.318108         1.0000         0.4132         0.1190
    1941.88080        81.5434      2474.5745       0.309852         1.0000         0.4257         0.1571
    1942.03320        81.5500      2457.6160       0.309069         1.0000         0.4417         0.1552
    1942.18560        81.5565      2376.1450       0.305231         1.0000         0.4296         0.1886
    1942.33800        81.5631      2534.9941       0.312598         1.0000         0.4277         0.2026
    1942.49040        81.5696      2728.4001       0.320968         1.0000         0.4228         0.1845
    1942.64280        81.5762      3010.2109       0.332158         1.0000         0.4074         0.0870
    1942.79520        81.5827      3109.2056       0.335842         1.0000         0.4060         0.0637
    1942.94760        81.5893      3098.1904       0.335438         1.0000         0.4102         0.0000
    1943.10000        81.5958      3079.0164       0.334731         1.0000         0.4144         0.0000
    1943.25240        81.6024      3069.8250       0.334391         1.0000         0.4175         0.0000
    1943.40480        81.6089      3080.7925       0.334797         1.0000         0.4227         0.0000
    1943.55720        81.6155      3060.8223       0.334056         1.0000         0.4237         0.0233
    1943.70960        81.6220      3022.8315       0.332634         1.0000         0.4190         0.0598
    1943.86200        81.6286      3046.3940       0.333518         1.0000         0.4149         0.0024
    1944.01440        81.6351      3067.6111       0.334309         1.0000         0.4174         0.0000
    1944.16680        81.6417      3071.8098       0.334464         1.0000         0.4197         0.0000
    1944.31920        81.6483      2969.2744       0.330599         1.0000         0.4236         0.0000
    1944.47160        81.6548      2884.5706       0.327305         1.0000         0.4288         0.0000
    1944.62400        81.6614      2926.0300       0.328929         1.0000         0.4291         0.0000
    1944.77640        81.6679      3043.5266       0.333411         1.0000         0.4248         0.0000
    1944.92880        81.6745      3211.5071       0.339527         1.0000         0.4199         0.0000
    1945.08120        81.6810      3165.7456       0.337893         1.0000         0.4221         0.0000
    1945.23360        81.6876      3109.2234       0.335842         1.0000         0.4251         0.0361
    1945.38600        81.6941      3054.6338       0.333826         1.0000         0.4238         0.0443
    1945.53840        81.7007      3070.3618       0.334411         1.0000         0.4230         0.0288
    1945.69080        81.7072      3040.9949       0.333316         1.0000         0.4277         0.0288
    1945.84320        81.7138      2994.0940       0.331547         1.0000         0.4321         0.0284
    1945.99560        81.7203      2970.8264       0.330659         1.0000         0.4358         0.0257
    1946.14800        81.7269      2970.0168       0.330628         1.0000         0.4544         0.0000
    1946.30040        81.7334      2861.1262       0.326376         1.0000         0.4813         0.0000
    1946.45280        81.7400      2548.5088       0.313203         1.0000         0.5016         0.0835
    1946.60520        81.7466      2104.6372       0.291418         1.0000         0.4793         0.1557
    1946.75760        81.7531      1911.6595       0.280470         1.0000         0.4931         0.2765
    1946.91000        81.7597      1951.1830       0.282799         1.0000         0.4833         0.2731
    1947.06240        81.7662      2183.8247       0.295623         1.0000         0.5061         0.2936
    1947.21480        81.7728      2305.1836       0.301779         1.0000         0.4767         0.2241
    1947.36720        81.7793      2369.2708       0.304901         1.0000         0.4798         0.1755
    1947.51960        81.7859      2417.0642       0.307175         1.0000         0.4797         0.1154
    1947.67200        81.7924      2469.1367       0.309601         1.0000         0.4652         0.0754
    1947.82440        81.7990      2481.9094       0.310189         1.0000         0.4727         0.0312
