~Version Information Block
VERS .                 2.00:  CWLS LOG ASCII STANDARD - VERSION 2.00
WRAP .                   NO:  One line per depth step
~Well Information Block
#MNEM.UNIT        Data Type   Information
#---------- ----------------  -----------
STRT .M             0.00000:  START DEPTH
STOP .M          2091.69000:  STOP DEPTH
STEP .M             0.15240:  STEP
NULL .              -999.25:  NULL VALUE
COMP . Statoil Petroleum AS:  COMPANY
WELL .           NO_16/2-10:  WELL
FLD  .                     :  FIELD
LOC  .                     :  LOCATION
CTRY .                     :  COUNTRY
STAT .                     :  STATE
CNTY .                     :  COUNTY
API  .                     :  API NUMBER
UWI  .                     :  UNIQUE WELL ID
SRVC .                     :  SERVICE COMPANY
DATE .                     :  LOG DATE
~Curve Information Block
#MNEM.UNIT         API CODE   Curve Description
#---------- ----------------  -----------------
DEPTH.M                    :  
FTEMP.DEGC                 :  0.043*(TVDSS-115)+4
KLOGH.                     :  KLOGH
PHIT .V/V                  :  Limited apparent porosity
SAND .                     :  IFC((VSH<0.45&PHIT>0.12) 1 0)
SWT  .V/V                  :  Limited unflushed zone tot sat'n
VSH  .V/V                  :  Curve replaced from 1896.29 to 1896.64
~Parameter Information Block
#MNEM.UNIT            Value   Description
#---------- ----------------  -----------
SET  .                TOLT2:  
CUR_INT_BOT.             2310.384:  
~Other Information Block
#        DEPTH          FTEMP          KLOGH           PHIT           SAND            SWT            VSH 
~A
# ...
    1912.77240        80.2918      5364.6919       0.124204         1.0000         0.0280         0.0000
    1912.92480        80.2984      7223.6885       0.165800         1.0000         0.0323         0.0000
    1913.07720        80.3049     11931.3145       0.235954         1.0000         0.0281         0.0000
    1913.22960        80.3115     17043.1953       0.285806         1.0000         0.0245         0.0000
    1913.38200        80.3180     18316.6836       0.295880         1.0000         0.0250         0.0000
    1913.53440        80.3246     18206.6211       0.295038         1.0000         0.0272         0.0715
    1913.68680        80.3312     19426.7871       0.304106         1.0000         0.0320         0.0546
    1913.83920        80.3377     21229.3555       0.316511         1.0000         0.0366         0.0424
    1913.99160        80.3443     22900.5117       0.327105         1.0000         0.0359         0.0057
    1914.14400        80.3508     23424.2480       0.330266         1.0000         0.0328         0.0513
    1914.29640        80.3574     23130.5840       0.328503         1.0000         0.0315         0.0390
    1914.44880        80.3639     22378.5898       0.323882         1.0000         0.0306         0.0130
    1914.60120        80.3705     21467.1816       0.318069         1.0000         0.0300         0.0026
    1914.75360        80.3770     21500.0996       0.318283         1.0000         0.0304         0.0000
    1914.90600        80.3836     21987.3691       0.321416         1.0000         0.0307         0.0433
    1915.05840        80.3901     22925.9199       0.327260         1.0000         0.0309         0.0172
    1915.21080        80.3967     23247.2090       0.329206         1.0000         0.0320         0.0492
    1915.36320        80.4032     23615.0781       0.331401         1.0000         0.0326         0.0221
    1915.51560        80.4098     23038.4199       0.327944         1.0000         0.0330         0.0534
    1915.66800        80.4163     22509.7461       0.324699         1.0000         0.0347         0.0520
    1915.82040        80.4229     21920.4453       0.320990         1.0000         0.0373         0.0962
    1915.97280        80.4295     21786.0156       0.320130         1.0000         0.0398         0.0779
    1916.12520        80.4360     21749.2422       0.319894         1.0000         0.0424         0.1329
    1916.27760        80.4426     21684.1055       0.319474         1.0000         0.0422         0.0861
    1916.43000        80.4491     21587.8320       0.318852         1.0000         0.0416         0.1148
    1916.58240        80.4557     21776.6738       0.320070         1.0000         0.0406         0.0339
    1916.73480        80.4622     21859.8809       0.320603         1.0000         0.0383         0.0545
    1916.88720        80.4688     21468.9844       0.318081         1.0000         0.0373         0.0012
    1917.03960        80.4753     20528.5273       0.311818         1.0000         0.0371         0.0247
    1917.19200        80.4819     20330.9492       0.310466         1.0000         0.0410         0.0325
    1917.34440        80.4884     21000.3281       0.314995         1.0000         0.0435         0.0718
    1917.49680        80.4950     22089.4512       0.322064         1.0000         0.0424         0.0718
    1917.64920        80.5015     22607.8633       0.325307         1.0000         0.0404         0.0951
    1917.80160        80.5081     22576.2500       0.325111         1.0000         0.0381         0.0634
    1917.95400        80.5146     22172.5664       0.322589         1.0000         0.0385         0.1048
    1918.10640        80.5212     21435.0566       0.317860         1.0000         0.0398         0.0762
    1918.25880        80.5277     20952.5000       0.314676         1.0000         0.0422         0.1277
    1918.41120        80.5343     21094.5371       0.315621         1.0000         0.0438         0.1462
    1918.56360        80.5408     21863.2910       0.320625         1.0000         0.0421         0.1648
    1918.71600        80.5474     22406.1094       0.324054         1.0000         0.0417         0.1487
    1918.86840        80.5539     22382.6934       0.323907         1.0000         0.0424         0.0288
    1919.02080        80.5605     22253.7852       0.323100         1.0000         0.0424         0.0000
    1919.17320        80.5671     22344.1016       0.323666         1.0000         0.0439         0.0000
    1919.32560        80.5736     22036.0879       0.321726         1.0000         0.0485         0.0704
    1919.47800        80.5802     21497.8945       0.318269         1.0000         0.0520         0.0937
    1919.63040        80.5867     21208.0957       0.316371         1.0000         0.0551         0.0283
    1919.78280        80.5933     21785.1387       0.320124         1.0000         0.0596         0.0230
    1919.93520        80.5998     22170.3887       0.322575         1.0000         0.0603         0.0747
    1920.08760        80.6064     22139.7754       0.322382         1.0000         0.0571         0.1347
    1920.24000        80.6129     21103.8652       0.315683         1.0000         0.0564         0.1399
    1920.39240        80.6195     19925.8535       0.307652         1.0000         0.0601         0.1015
    1920.54480        80.6260     19510.0801       0.304704         1.0000         0.0746         0.0728
    1920.69720        80.6326     20014.3457       0.308272         1.0000         0.0762         0.0609
    1920.84960        80.6391     20744.0039       0.313278         1.0000         0.0679         0.0897
    1921.00200        80.6457     20240.5469       0.309843         1.0000         0.0768         0.1532
    1921.15440        80.6522     18625.6719       0.298219         1.0000         0.1255         0.1755
    1921.30680        80.6588     16010.5615       0.277068         1.0000         0.1608         0.1506
    1921.45920        80.6653     14779.1377       0.265879         1.0000         0.1317         0.0896
    1921.61160        80.6719     14513.6357       0.263344         1.0000         0.0867         0.0532
    1921.76400        80.6785     14848.4658       0.266533         1.0000         0.0665         0.0434
    1921.91640        80.6850     13720.5977       0.255489         1.0000         0.0667         0.0696
    1922.06880        80.6916     11159.1035       0.226599         1.0000         0.0783         0.1295
    1922.22120        80.6981      8042.7144       0.180815         1.0000         0.1155         0.1590
    1922.37360        80.7047      6233.6104       0.145191         1.0000         0.1248         0.1851
    1922.52600        80.7112      6181.3813       0.144015         1.0000         0.1283         0.1296
    1922.67840        80.7178      8583.5654       0.189914         1.0000         0.0815         0.1321
    1922.83080        80.7243     13127.8262       0.249314         1.0000         0.0648         0.1372
    1922.98320        80.7309     18311.9062       0.295844         1.0000         0.0957         0.1445
    1923.13560        80.7374     20034.9336       0.308416         1.0000         0.1013         0.1628
    1923.28800        80.7440     17548.9297       0.289894         1.0000         0.1327         0.1602
    1923.44040        80.7505     14179.3643       0.260087         1.0000         0.2882         0.2396
    1923.59280        80.7571      2053.9585       0.288643         1.0000         0.3557         0.3781
    1923.74520        80.7636      2225.5554       0.297778         0.0000         0.3597         0.5046
    1923.89760        80.7702      2379.7419       0.305403         0.0000         0.3514         0.6220
    1924.05000        80.7767      2483.6729       0.310270         0.0000         0.3365         0.6713
    1924.20240        80.7833      2609.6589       0.315903         0.0000         0.2949         0.5997
    1924.35480        80.7898      3244.9163       0.340705         1.0000         0.2377         0.3611
