~Version Information Block
VERS .                 2.00:  CWLS LOG ASCII STANDARD - VERSION 2.00
WRAP .                   NO:  One line per depth step
~Well Information Block
#MNEM.UNIT        Data Type   Information
#---------- ----------------  -----------
STRT .M             0.00000:  START DEPTH
STOP .M          2091.69000:  STOP DEPTH
STEP .M             0.15240:  STEP
NULL .              -999.25:  NULL VALUE
COMP . Statoil Petroleum AS:  COMPANY
WELL .           NO_16/2-10:  WELL
FLD  .                     :  FIELD
LOC  .                     :  LOCATION
CTRY .                     :  COUNTRY
STAT .                     :  STATE
CNTY .                     :  COUNTY
API  .                     :  API NUMBER
UWI  .                     :  UNIQUE WELL ID
SRVC .                     :  SERVICE COMPANY
DATE .                     :  LOG DATE
~Curve Information Block
#MNEM.UNIT         API CODE   Curve Description
#---------- ----------------  -----------------
DEPTH.M                    :  
FTEMP.DEGC                 :  0.043*(TVDSS-115)+4
KLOGH.                     :  KLOGH
PHIT .V/V                  :  Limited apparent porosity
SAND .                     :  IFC((VSH<0.45&PHIT>0.12) 1 0)
SWT  .V/V                  :  Limited unflushed zone tot sat'n
VSH  .V/V                  :  Curve replaced from 1896.29 to 1896.64
~Parameter Information Block
#MNEM.UNIT            Value   Description
#---------- ----------------  -----------
SET  .                TOLT2:  
CUR_INT_BOT.             2310.384:  
~Other Information Block
#        DEPTH          FTEMP          KLOGH           PHIT           SAND            SWT            VSH 
~A
# ...
    1959.71160        82.3101      2380.2153       0.305426         1.0000         0.8349         0.0985
    1959.86400        82.3166      1914.1399       0.280617         1.0000         0.8907         0.1486
    1960.01640        82.3232      1635.0471       0.262676         1.0000         0.9356         0.1292
    1960.16880        82.3297      1427.5680       0.247228         1.0000         1.0000         0.0830
    1960.32120        82.3363      1305.4584       0.237048         1.0000         0.9334         0.0914
    1960.47360        82.3428      1378.7295       0.243265         1.0000         0.9734         0.1692
    1960.62600        82.3494      1550.4828       0.256630         1.0000         0.9333         0.2101
    1960.77840        82.3560      1908.1251       0.280259         1.0000         0.8211         0.1831
    1960.93080        82.3625      1989.6185       0.285020         1.0000         0.8550         0.1217
    1961.08320        82.3691      1880.6316       0.278607         1.0000         0.9102         0.1384
    1961.23560        82.3756      1442.1262       0.248383         1.0000         0.9857         0.1319
    1961.38800        82.3822      1099.1837       0.217469         1.0000         0.9140         0.1083
    1961.54040        82.3887       994.6401       0.206091         1.0000         0.9132         0.0913
    1961.69280        82.3953      1159.1326       0.223514         1.0000         0.9759         0.1475
    1961.84520        82.4018      1202.5778       0.227703         1.0000         0.9493         0.2492
    1961.99760        82.4084      1156.3586       0.223242         1.0000         0.8370         0.3731
    1962.15000        82.4149      1063.6484       0.213728         0.0000         0.8638         0.4746
    1962.30240        82.4215      1025.7786       0.209601         0.0000         0.8610         0.5693
    1962.45480        82.4280      1036.7693       0.210814         0.0000         0.7913         0.6238
    1962.60720        82.4346      1049.6591       0.212221         0.0000         0.8063         0.5886
    1962.75960        82.4411      1287.0598       0.235432         0.0000         0.8155         0.6061
    1962.91200        82.4477      1587.4280       0.259311         0.0000         0.7507         0.6561
    1963.06440        82.4542      1856.1316       0.277114         0.0000         0.7102         0.6939
    1963.21680        82.4608      2007.2863       0.286026         0.0000         0.6944         0.7043
    1963.36920        82.4674      1917.9193       0.280842         0.0000         0.7097         0.6856
    1963.52160        82.4739      1572.0707       0.258205         0.0000         0.7447         0.6386
    1963.67400        82.4805      1096.2651       0.217166         0.0000         0.8590         0.5500
    1963.82640        82.4870       707.2164       0.167266         1.0000         1.0000         0.4320
    1963.97880        82.4936       480.2103       0.123197         1.0000         1.0000         0.3878
    1964.13120        82.5001       332.2668       0.081270         0.0000         1.0000         0.3175
    1964.28360        82.5067       230.9648       0.039869         0.0000         1.0000         0.2763
    1964.43600        82.5132       230.2442       0.039513         0.0000         1.0000         0.2527
    1964.58840        82.5198       287.2119       0.064681         0.0000         1.0000         0.3073
    1964.74080        82.5263       485.3272       0.124403         1.0000         1.0000         0.3072
    1964.89320        82.5329       636.6006       0.155291         1.0000         1.0000         0.3463
    1965.04560        82.5394       663.1736       0.159946         1.0000         1.0000         0.3358
    1965.19800        82.5460       688.0016       0.164130         1.0000         0.6951         0.3284
    1965.35040        82.5525       960.1091       0.202069         1.0000         0.8493         0.2137
    1965.50280        82.5591      1541.4277       0.255964         1.0000         0.7847         0.0835
    1965.65520        82.5657      2192.5542       0.296077         1.0000         0.7052         0.0000
    1965.80760        82.5722      2449.8623       0.308709         1.0000         0.6623         0.0233
    1965.96000        82.5788      2464.2285       0.309375         1.0000         0.6416         0.0000
    1966.11240        82.5853      2266.4355       0.299850         1.0000         0.6226         0.0000
    1966.26480        82.5919      2049.9338       0.288420         1.0000         0.6258         0.0008
    1966.41720        82.5984      1957.0055       0.283138         1.0000         0.7321         0.0104
    1966.56960        82.6050      2012.7019       0.286333         1.0000         0.6647         0.0229
    1966.72200        82.6115      1647.0197       0.263507         1.0000         0.5850         0.0379
    1966.87440        82.6181      1131.2148       0.220739         1.0000         0.6532         0.1514
    1967.02680        82.6246       748.7847       0.173768         1.0000         0.7956         0.1375
    1967.17920        82.6312       616.7415       0.151683         1.0000         0.8484         0.0945
    1967.33160        82.6377       617.7005       0.151860         1.0000         0.8362         0.0713
    1967.48400        82.6443       673.3400       0.161678         1.0000         0.7751         0.1478
    1967.63640        82.6508       776.5276       0.177910         1.0000         1.0000         0.3168
    1967.78880        82.6574       870.7472       0.190947         0.0000         0.9142         0.4745
    1967.94120        82.6639       919.8544       0.197193         0.0000         0.8888         0.5142
    1968.09360        82.6705        21.9931       0.197258         0.0000         1.0000         0.4657
    1968.24600        82.6770        18.5210       0.192205         1.0000         1.0000         0.4369
    1968.39840        82.6836        15.3283       0.186640         1.0000         1.0000         0.4399
    1968.55080        82.6901        12.7400       0.181200         1.0000         1.0000         0.4168
    1968.70320        82.6967        13.0440       0.181893         1.0000         1.0000         0.3389
    1968.85560        82.7033        14.9806       0.185965         1.0000         1.0000         0.3403
    1969.00800        82.7098        16.1572       0.188189         1.0000         1.0000         0.3819
    1969.16040        82.7164        15.9683       0.187843         1.0000         1.0000         0.3890
    1969.31280        82.7229        17.6367       0.190766         0.0000         1.0000         0.4612
    1969.46520        82.7295        17.0517       0.189774         0.0000         1.0000         0.5076
    1969.61760        82.7360        14.8282       0.185664         0.0000         1.0000         0.5656
    1969.77000        82.7426        10.4755       0.175444         0.0000         1.0000         0.5901
    1969.92240        82.7491         8.8901       0.170617         0.0000         1.0000         0.4949
    1970.07480        82.7557         7.9287       0.167251         1.0000         1.0000         0.4344
    1970.22720        82.7622         6.3968       0.160936         1.0000         0.9813         0.3078
    1970.37960        82.7688         4.6914       0.151817         1.0000         1.0000         0.3413
    1970.53200        82.7753         4.0723       0.147654         1.0000         1.0000         0.3508
    1970.68440        82.7819         5.0183       0.153798         1.0000         1.0000         0.4108
    1970.83680        82.7884         8.1464       0.168048         1.0000         1.0000         0.3617
    1970.98920        82.7950        11.8798       0.179144         1.0000         1.0000         0.3931
    1971.14160        82.8016        12.6672       0.181031         1.0000         1.0000         0.4348
    1971.29400        82.8081        13.0869       0.181990         0.0000         1.0000         0.5306
