~Version Information Block
VERS .                 2.00:  CWLS LOG ASCII STANDARD - VERSION 2.00
WRAP .                   NO:  One line per depth step
~Well Information Block
#MNEM.UNIT        Data Type   Information
#---------- ----------------  -----------
STRT .M             0.00000:  START DEPTH
STOP .M          2091.69000:  STOP DEPTH
STEP .M             0.15240:  STEP
NULL .              -999.25:  NULL VALUE
COMP . Statoil Petroleum AS:  COMPANY
WELL .           NO_16/2-10:  WELL
FLD  .                     :  FIELD
LOC  .                     :  LOCATION
CTRY .                     :  COUNTRY
STAT .                     :  STATE
CNTY .                     :  COUNTY
API  .                     :  API NUMBER
UWI  .                     :  UNIQUE WELL ID
SRVC .                     :  SERVICE COMPANY
DATE .                     :  LOG DATE
~Curve Information Block
#MNEM.UNIT         API CODE   Curve Description
#---------- ----------------  -----------------
DEPTH.M                    :  
FTEMP.DEGC                 :  0.043*(TVDSS-115)+4
KLOGH.                     :  KLOGH
PHIT .V/V                  :  Limited apparent porosity
SAND .                     :  IFC((VSH<0.45&PHIT>0.12) 1 0)
SWT  .V/V                  :  Limited unflushed zone tot sat'n
VSH  .V/V                  :  Curve replaced from 1896.29 to 1896.64
~Parameter Information Block
#MNEM.UNIT            Value   Description
#---------- ----------------  -----------
SET  .                TOLT2:  
CUR_INT_BOT.             2310.384:  
~Other Information Block
#        DEPTH          FTEMP          KLOGH           PHIT           SAND            SWT            VSH 
~A
# ...
    1994.91600        83.8238         5.0599       0.154041         1.0000         0.9692         0.2205
    1995.06840        83.8304         2.4937       0.133230         1.0000         1.0000         0.1593
    1995.22080        83.8369         1.0861       0.108782         0.0000         1.0000         0.1821
    1995.37320        83.8435         0.4471       0.082679         0.0000         1.0000         0.1414
    1995.52560        83.8500         0.4402       0.082222         0.0000         1.0000         0.1358
    1995.67800        83.8566         0.7121       0.096368         0.0000         1.0000         0.1415
    1995.83040        83.8631         1.7553       0.122903         1.0000         1.0000         0.1625
    1995.98280        83.8697         3.9011       0.146391         1.0000         0.9096         0.1850
    1996.13520        83.8762         5.7747       0.157927         1.0000         0.8805         0.1695
    1996.28760        83.8828         5.4478       0.156213         1.0000         0.8845         0.2007
    1996.44000        83.8893         4.6018       0.151250         1.0000         0.9122         0.2117
    1996.59240        83.8959         3.2448       0.140973         1.0000         0.9862         0.2605
    1996.74480        83.9024         2.6662       0.135197         1.0000         0.9980         0.2187
    1996.89720        83.9090         2.0248       0.127103         1.0000         0.9660         0.2243
    1997.04960        83.9156         2.4094       0.132218         1.0000         0.9323         0.1781
    1997.20200        83.9221         2.6113       0.134585         1.0000         0.9378         0.1703
    1997.35440        83.9286         1.7172       0.122257         1.0000         1.0000         0.1397
    1997.50680        83.9352         0.8879       0.102856         0.0000         1.0000         0.1006
    1997.65920        83.9418         0.5386       0.088155         0.0000         1.0000         0.0967
    1997.81160        83.9483         1.0542       0.107907         0.0000         1.0000         0.1079
    1997.96400        83.9549         2.5305       0.133661         1.0000         0.9772         0.0709
    1998.11640        83.9614         7.3493       0.165019         1.0000         1.0000         0.0982
    1998.26880        83.9680        11.7245       0.178757         1.0000         0.9063         0.0703
    1998.42120        83.9745        10.1351       0.174472         1.0000         0.9614         0.0917
    1998.57360        83.9811         5.8970       0.158544         1.0000         0.8906         0.0917
    1998.72600        83.9876         3.4363       0.142660         1.0000         0.9218         0.1028
    1998.87840        83.9942         2.0232       0.127079         1.0000         1.0000         0.1263
    1999.03080        84.0007         1.4053       0.116362         0.0000         1.0000         0.1108
    1999.18320        84.0073         0.7660       0.098513         0.0000         1.0000         0.1051
    1999.33560        84.0138         0.4893       0.085330         0.0000         1.0000         0.0922
    1999.48800        84.0204         0.4774       0.084608         0.0000         1.0000         0.1233
    1999.64040        84.0269         0.6137       0.091992         0.0000         1.0000         0.1675
    1999.79280        84.0335         0.7365       0.097360         0.0000         1.0000         0.2380
    1999.94520        84.0401         0.6150       0.092058         0.0000         1.0000         0.2329
    2000.09760        84.0466         0.6141       0.092014         0.0000         1.0000         0.2028
    2000.25000        84.0532         0.6764       0.094856         0.0000         1.0000         0.1610
    2000.40240        84.0597         0.7167       0.096556         0.0000         1.0000         0.1510
    2000.55480        84.0663         0.7706       0.098688         0.0000         1.0000         0.1934
    2000.70720        84.0728         0.9534       0.104952         0.0000         1.0000         0.1620
    2000.85960        84.0794         1.0544       0.107913         0.0000         1.0000         0.2241
    2001.01200        84.0859         1.3200       0.114519         0.0000         1.0000         0.2137
    2001.16440        84.0925         1.6307       0.120737         1.0000         1.0000         0.2678
    2001.31680        84.0990         2.0323       0.127212         1.0000         1.0000         0.1503
    2001.46920        84.1056         1.8774       0.124880         1.0000         1.0000         0.1764
    2001.62160        84.1121         1.6977       0.121921         1.0000         1.0000         0.1679
    2001.77400        84.1187         1.5529       0.119299         0.0000         1.0000         0.2720
    2001.92640        84.1252         1.5973       0.120129         1.0000         1.0000         0.2773
    2002.07880        84.1318         1.6401       0.120905         1.0000         1.0000         0.2839
    2002.23120        84.1384         2.0454       0.127401         1.0000         1.0000         0.2503
    2002.38360        84.1449         2.0784       0.127872         1.0000         1.0000         0.2270
    2002.53600        84.1515         1.8960       0.125170         1.0000         1.0000         0.3010
    2002.68840        84.1580         1.7312       0.122495         1.0000         1.0000         0.3167
    2002.84080        84.1646         1.5307       0.118875         0.0000         1.0000         0.2904
    2002.99320        84.1711         1.8278       0.124092         1.0000         1.0000         0.2163
    2003.14560        84.1777         2.2029       0.129583         1.0000         1.0000         0.2051
    2003.29800        84.1842         2.6217       0.134701         1.0000         1.0000         0.2364
    2003.45040        84.1908         2.1654       0.129077         1.0000         1.0000         0.2520
    2003.60280        84.1973         1.8030       0.123690         1.0000         1.0000         0.3021
    2003.75520        84.2039         1.4111       0.116483         0.0000         1.0000         0.2904
    2003.90760        84.2104         1.2215       0.112240         0.0000         1.0000         0.2487
    2004.06000        84.2170         0.9504       0.104858         0.0000         1.0000         0.1914
    2004.21240        84.2235         0.7407       0.097524         0.0000         1.0000         0.2084
    2004.36480        84.2301         0.7068       0.096148         0.0000         1.0000         0.2863
    2004.51720        84.2366         0.7479       0.097811         0.0000         1.0000         0.2473
    2004.66960        84.2432         0.7963       0.099655         0.0000         1.0000         0.1351
    2004.82200        84.2498         0.7488       0.097847         0.0000         1.0000         0.0338
    2004.97440        84.2563         0.6825       0.095118         0.0000         1.0000         0.0299
    2005.12680        84.2629         0.7635       0.098418         0.0000         1.0000         0.0299
    2005.27920        84.2694         0.7009       0.095903         0.0000         1.0000         0.0000
    2005.43160        84.2760         0.6542       0.093875         0.0000         1.0000         0.0000
    2005.58400        84.2825         0.7152       0.096494         0.0000         1.0000         0.0047
    2005.73640        84.2891         1.1016       0.109199         0.0000         1.0000         0.0152
    2005.88880        84.2956         1.8323       0.124165         1.0000         1.0000         0.0021
    2006.04120        84.3022         2.1560       0.128950         1.0000         1.0000         0.0000
    2006.19360        84.3087         1.9371       0.125801         1.0000         1.0000         0.0000
    2006.34600        84.3153         1.6866       0.121727         1.0000         1.0000         0.0000
    2006.49840        84.3218         2.0041       0.126801         1.0000         1.0000         0.0000
